{
 "source": "City of Chicago Business Licenses - Current Active (data.cityofchicago.org, uupf-x98q), ward=34, with geocodes",
 "retrieved": "2026-07-07",
 "businesses": [
  {
   "name": "\"M\" Bar",
   "address": "151 N Michigan Ave Ll C-16",
   "zip": "60601",
   "lat": 41.88454,
   "lng": -87.624309,
   "category": "bar"
  },
  {
   "name": "10 South Market",
   "address": "10 S La Salle St Lobby",
   "zip": "60603",
   "lat": 41.881675,
   "lng": -87.632504,
   "category": "restaurant"
  },
  {
   "name": "1000 Clark Cleaners",
   "address": "1000 S Clark St 1St Floor C100",
   "zip": "60605",
   "lat": 41.869849,
   "lng": -87.630656,
   "category": "cleaners"
  },
  {
   "name": "1000 South Pet Care",
   "address": "1000 S Clark St  300",
   "zip": "60605",
   "lat": 41.869849,
   "lng": -87.630656
  },
  {
   "name": "11 Dining",
   "address": "440 S La Salle St 3Rd",
   "zip": "60605",
   "lat": 41.875888,
   "lng": -87.631885,
   "category": "restaurant"
  },
  {
   "name": "11 East Partners, Llc",
   "address": "11 E Madison St Ll L-100",
   "zip": "60602",
   "lat": 41.881955,
   "lng": -87.627429
  },
  {
   "name": "111 Market",
   "address": "111 W Washington St 1St",
   "zip": "60602",
   "lat": 41.883101,
   "lng": -87.631263,
   "category": "restaurant"
  },
  {
   "name": "1227 Jackson Condominiums Llc",
   "address": "1101 W Monroe St  200",
   "zip": "60607",
   "lat": 41.880256,
   "lng": -87.654778
  },
  {
   "name": "123 Nail Salon",
   "address": "1255 S State St 1St 4",
   "zip": "60605",
   "lat": 41.865931,
   "lng": -87.62724,
   "category": "salon"
  },
  {
   "name": "1250 Cleaners",
   "address": "1250 S Michigan Ave 1St",
   "zip": "60605",
   "lat": 41.866074,
   "lng": -87.624268,
   "category": "cleaners"
  },
  {
   "name": "141 W Jackson Owner Llc",
   "address": "141 W Jackson Blvd",
   "zip": "60604",
   "lat": 41.878026,
   "lng": -87.632062
  },
  {
   "name": "150 Cleaners And Shoe Repair",
   "address": "150 N Michigan Ave Lower Level B 5",
   "zip": "60601",
   "lat": 41.884531,
   "lng": -87.624602,
   "category": "cleaners"
  },
  {
   "name": "181 West Madison Property",
   "address": "181 W Madison St",
   "zip": "60602",
   "lat": 41.881841,
   "lng": -87.633255
  },
  {
   "name": "2 Twenty 2 Tavern",
   "address": "222 S Wabash Ave 1",
   "zip": "60604",
   "lat": 41.87895,
   "lng": -87.626252,
   "category": "bar"
  },
  {
   "name": "29 E Madison, Llc",
   "address": "29 E Madison St  810",
   "zip": "60602",
   "lat": 41.881965,
   "lng": -87.626793
  },
  {
   "name": "360 Destination Group",
   "address": "17 N State St  1760",
   "zip": "60602",
   "lat": 41.882457,
   "lng": -87.6277
  },
  {
   "name": "37 Morgan",
   "address": "37 N Morgan St 1St",
   "zip": "60607",
   "lat": 41.882875,
   "lng": -87.651918
  },
  {
   "name": "540 Cafe",
   "address": "540 W Madison St 2",
   "zip": "60661",
   "lat": 41.881966,
   "lng": -87.641276,
   "category": "cafe"
  },
  {
   "name": "7 -Eleven #38183B",
   "address": "135 W Madison St 1",
   "zip": "60602",
   "lat": 41.881857,
   "lng": -87.631896,
   "category": "liquor"
  },
  {
   "name": "7 Eleven #33726A",
   "address": "627 W Jackson Blvd 1St",
   "zip": "60661",
   "lat": 41.877881,
   "lng": -87.643751,
   "category": "liquor"
  },
  {
   "name": "7-Eleven",
   "address": "833 W Van Buren St 1",
   "zip": "60607",
   "lat": 41.876544,
   "lng": -87.648472,
   "category": "liquor"
  },
  {
   "name": "7-Eleven #32889B",
   "address": "48 N Wells St 1St",
   "zip": "60606",
   "lat": 41.883132,
   "lng": -87.634007,
   "category": "liquor"
  },
  {
   "name": "7-Eleven #33511C",
   "address": "33 E Adams St 1St",
   "zip": "60603",
   "lat": 41.879401,
   "lng": -87.626487,
   "category": "liquor"
  },
  {
   "name": "7-Eleven #33606H",
   "address": "567 W Lake St  B",
   "zip": "60661",
   "lat": 41.885594,
   "lng": -87.642526,
   "category": "restaurant"
  },
  {
   "name": "7-Eleven #37152 A",
   "address": "30 E Jackson Blvd",
   "zip": "60604",
   "lat": 41.878343,
   "lng": -87.626603,
   "category": "liquor"
  },
  {
   "name": "786 Maaaayaaaa, Inc.",
   "address": "33 W Monroe St 1St Floor",
   "zip": "60603",
   "lat": 41.880616,
   "lng": -87.629049,
   "category": "restaurant"
  },
  {
   "name": "7am Nail Care",
   "address": "1004 W Monroe St",
   "zip": "60607",
   "lat": 41.880515,
   "lng": -87.652277,
   "category": "salon"
  },
  {
   "name": "8 S Michigan, Llc",
   "address": "8 S Michigan Ave",
   "zip": "60603",
   "lat": 41.8819,
   "lng": -87.624507
  },
  {
   "name": "82. Kimbap",
   "address": "800 S Wells St  1350",
   "zip": "60607",
   "lat": 41.872086,
   "lng": -87.633718
  },
  {
   "name": "9 Muses Bar & Grill",
   "address": "315 S Halsted St 1St",
   "zip": "60661",
   "lat": 41.877346,
   "lng": -87.647076,
   "category": "bar"
  },
  {
   "name": "90Th Meridian",
   "address": "231 S La Salle St 1 108",
   "zip": "60604",
   "lat": 41.878543,
   "lng": -87.632121,
   "category": "restaurant"
  },
  {
   "name": "A & A Jewelry Manufacturing And Casting Llc",
   "address": "5 S Wabash Ave  417",
   "zip": "60603",
   "lat": 41.881922,
   "lng": -87.626063
  },
  {
   "name": "A & B Watch Repair",
   "address": "29 E Madison St 14Th 1407",
   "zip": "60602",
   "lat": 41.881965,
   "lng": -87.626793
  },
  {
   "name": "A & E Rubber Stamp Corp",
   "address": "215 N Desplaines St  2Nd F",
   "zip": "60661",
   "lat": 41.88623,
   "lng": -87.644114
  },
  {
   "name": "A & S Jewelers Corporation",
   "address": "5 S Wabash Ave 9Th 920",
   "zip": "60603",
   "lat": 41.881922,
   "lng": -87.626063
  },
  {
   "name": "A Better Chicago",
   "address": "200 W Madison St 3Rd",
   "zip": "60606",
   "lat": 41.882055,
   "lng": -87.6339
  },
  {
   "name": "A Fingerprinting U S Photo Inc.",
   "address": "210 S Clark St  L5 Lobby",
   "zip": "60604",
   "lat": 41.879066,
   "lng": -87.630957
  },
  {
   "name": "A Royal Redemptions",
   "address": "428 S Clark St  1St",
   "zip": "60605",
   "lat": 41.876283,
   "lng": -87.630878
  },
  {
   "name": "A&A Beauty Studio, Llc",
   "address": "155 N Michigan Ave 2Nd 204",
   "zip": "60601",
   "lat": 41.884636,
   "lng": -87.624314
  },
  {
   "name": "A&A Watch Repair Inc.",
   "address": "5 S Wabash Ave  1320",
   "zip": "60603",
   "lat": 41.881922,
   "lng": -87.626063
  },
  {
   "name": "A. Epstein And Sons International, Inc.",
   "address": "600 W Fulton St",
   "zip": "60661",
   "lat": 41.886921,
   "lng": -87.642879
  },
  {
   "name": "Aardvark Securities Llc",
   "address": "550 W Jackson Blvd 13Th 1300",
   "zip": "60661",
   "lat": 41.878132,
   "lng": -87.641585
  },
  {
   "name": "Abc Imaging Of Washington",
   "address": "161 W Harrison St  C101",
   "zip": "60605",
   "lat": 41.874381,
   "lng": -87.632807
  },
  {
   "name": "Able Professional Services Corporation",
   "address": "567 W Lake St  1150",
   "zip": "60661",
   "lat": 41.885594,
   "lng": -87.642526
  },
  {
   "name": "Abm Industry Groups, Llc",
   "address": "311 S Wacker Dr",
   "zip": "60606",
   "lat": 41.877792,
   "lng": -87.636524
  },
  {
   "name": "ABM Parking Services",
   "address": "111 W Jackson Blvd",
   "zip": "60604",
   "lat": 41.878034,
   "lng": -87.631171
  },
  {
   "name": "ABM Parking Services",
   "address": "1255 S Michigan Ave 1-7",
   "zip": "60605",
   "lat": 41.865975,
   "lng": -87.623971
  },
  {
   "name": "ABM Parking Services",
   "address": "321 S Wacker Dr",
   "zip": "60606",
   "lat": 41.877564,
   "lng": -87.636515
  },
  {
   "name": "ABM Parking Services, Inc.",
   "address": "540 W Madison St",
   "zip": "60661",
   "lat": 41.881966,
   "lng": -87.641276
  },
  {
   "name": "Acanto",
   "address": "18 S Michigan Ave 1St",
   "zip": "60603",
   "lat": 41.881659,
   "lng": -87.6245,
   "category": "restaurant"
  },
  {
   "name": "Access Financial Group",
   "address": "118 N Clinton St  450",
   "zip": "60661",
   "lat": 41.883804,
   "lng": -87.641401
  },
  {
   "name": "Access One,Inc",
   "address": "820 W Jackson Blvd 6 650",
   "zip": "60607",
   "lat": 41.878043,
   "lng": -87.64818
  },
  {
   "name": "Access Search Inc",
   "address": "218 N Jefferson St  302",
   "zip": "60661",
   "lat": 41.886355,
   "lng": -87.64294
  },
  {
   "name": "Accesso Services Chicago, LLC",
   "address": "20 N Clark St 6 620",
   "zip": "60602",
   "lat": 41.882434,
   "lng": -87.631037
  },
  {
   "name": "Acciona Energy Usa Global Llc",
   "address": "55 E Monroe St 29Th 2900",
   "zip": "60603",
   "lat": 41.880688,
   "lng": -87.625644
  },
  {
   "name": "Ace Shoe Clinic",
   "address": "69 W Washington St Lower Level Ll-18",
   "zip": "60602",
   "lat": 41.8831,
   "lng": -87.630147,
   "category": "health"
  },
  {
   "name": "Action For Healthy Kids, Inc.",
   "address": "600 W Van Buren St 7Th 720",
   "zip": "60607",
   "lat": 41.876842,
   "lng": -87.642573
  },
  {
   "name": "Action RCM, LLC",
   "address": "111 W Jackson Blvd 5 500",
   "zip": "60604",
   "lat": 41.878034,
   "lng": -87.631171
  },
  {
   "name": "ActiveCampaign",
   "address": "1 N Dearborn St Fifth",
   "zip": "60602",
   "lat": 41.88203,
   "lng": -87.629256
  },
  {
   "name": "Actors' Equity Association",
   "address": "557 W Randolph St First",
   "zip": "60661",
   "lat": 41.884323,
   "lng": -87.642048
  },
  {
   "name": "Adam Joseph Pycz",
   "address": "111 W Washington St 4Th 450",
   "zip": "60602",
   "lat": 41.883101,
   "lng": -87.631263
  },
  {
   "name": "Addus Homecare",
   "address": "1 N Lasalle St  4100",
   "zip": "60602",
   "lat": 41.88199,
   "lng": -87.632213
  },
  {
   "name": "Adm Investor Services,Inc",
   "address": "141 W Jackson Blvd  2100A",
   "zip": "60604",
   "lat": 41.878026,
   "lng": -87.632062
  },
  {
   "name": "Adr Systems Of America, Llc",
   "address": "20 N Clark St 29Th 2900",
   "zip": "60602",
   "lat": 41.882434,
   "lng": -87.631037
  },
  {
   "name": "Advanced Corp Agents",
   "address": "30 N Lasalle St 22 2250",
   "zip": "60602",
   "lat": 41.882695,
   "lng": -87.632531
  },
  {
   "name": "Advantage Futures Llc",
   "address": "141 W Jackson Blvd 39 3900",
   "zip": "60604",
   "lat": 41.878026,
   "lng": -87.632062
  },
  {
   "name": "Aeg Partners",
   "address": "200 W Madison St 24Th 2410",
   "zip": "60606",
   "lat": 41.882055,
   "lng": -87.6339
  },
  {
   "name": "Aerotek, Inc.",
   "address": "200 W Madison St  1400",
   "zip": "60606",
   "lat": 41.882055,
   "lng": -87.6339
  },
  {
   "name": "Aeterra",
   "address": "1 N Franklin St  1875",
   "zip": "60606",
   "lat": 41.881967,
   "lng": -87.635165
  },
  {
   "name": "Afc Sushi @Jewel-Osco #3345",
   "address": "1224 S Wabash Ave",
   "zip": "60605",
   "lat": 41.866724,
   "lng": -87.625961,
   "category": "restaurant"
  },
  {
   "name": "Afc Sushi@Jewel-Osco #3376",
   "address": "370 N Desplaines St",
   "zip": "60661",
   "lat": 41.888918,
   "lng": -87.644478,
   "category": "restaurant"
  },
  {
   "name": "After School Matters",
   "address": "66 E Randolph St 1St",
   "zip": "60601",
   "lat": 41.884608,
   "lng": -87.625474
  },
  {
   "name": "Ahead, Inc.",
   "address": "444 W Lake St  3000",
   "zip": "60606",
   "lat": 41.88583,
   "lng": -87.639806
  },
  {
   "name": "Aikana",
   "address": "652-654 W Randolph St 1St",
   "zip": "60661",
   "lat": 41.884531,
   "lng": -87.644775,
   "category": "restaurant"
  },
  {
   "name": "Aileron Communications, Inc.",
   "address": "8 S Michigan Ave  3000",
   "zip": "60603",
   "lat": 41.8819,
   "lng": -87.624507
  },
  {
   "name": "Aina By Mirna",
   "address": "118 N Clinton St 1St 101",
   "zip": "60661",
   "lat": 41.883804,
   "lng": -87.641401
  },
  {
   "name": "Aire",
   "address": "100 W Monroe St 24",
   "zip": "60603",
   "lat": 41.880805,
   "lng": -87.630929,
   "category": "restaurant"
  },
  {
   "name": "Aisle Rocket",
   "address": "626 W Jackson Blvd  100",
   "zip": "60661",
   "lat": 41.878101,
   "lng": -87.643756
  },
  {
   "name": "Ait Truckload Solutions, Inc.",
   "address": "55 W Monroe St 35 3590",
   "zip": "60603",
   "lat": 41.880599,
   "lng": -87.629907
  },
  {
   "name": "Aj Jewelers",
   "address": "5 S Wabash Ave 14Th 1406",
   "zip": "60603",
   "lat": 41.881922,
   "lng": -87.626063
  },
  {
   "name": "Aj Materials Llc",
   "address": "17 N Wabash Ave 6Th 601",
   "zip": "60602",
   "lat": 41.882481,
   "lng": -87.626077
  },
  {
   "name": "Akira",
   "address": "108 N State St 1 188",
   "zip": "60602",
   "lat": 41.883423,
   "lng": -87.628022
  },
  {
   "name": "Akuna Capital",
   "address": "333 S Wabash Ave  2600",
   "zip": "60604",
   "lat": 41.87745,
   "lng": -87.625922
  },
  {
   "name": "Al'S Italian Beef Inc",
   "address": "1079 W Taylor St 1St",
   "zip": "60607",
   "lat": 41.869349,
   "lng": -87.654169,
   "category": "restaurant"
  },
  {
   "name": "Alchemize Llc",
   "address": "24 E Washington St  875",
   "zip": "60602",
   "lat": 41.883328,
   "lng": -87.627059
  },
  {
   "name": "Alex Brown.",
   "address": "14 N Sangamon St 1",
   "zip": "60607",
   "lat": 41.882153,
   "lng": -87.651026
  },
  {
   "name": "Align Balance",
   "address": "175 W Jackson Blvd  600",
   "zip": "60604",
   "lat": 41.878014,
   "lng": -87.633189
  },
  {
   "name": "All In Motion",
   "address": "112 S Sangamon St Bsmt",
   "zip": "60607",
   "lat": 41.880003,
   "lng": -87.650957
  },
  {
   "name": "All Material Handling Inc.",
   "address": "345 N Canal St  C1",
   "zip": "60606",
   "lat": 41.888166,
   "lng": -87.639815
  },
  {
   "name": "Alla Vita",
   "address": "564 W Randolph St 1",
   "zip": "60661",
   "lat": 41.884543,
   "lng": -87.642331,
   "category": "restaurant"
  },
  {
   "name": "alliantgroup, LP",
   "address": "311 S Wacker Dr 23 2380",
   "zip": "60606",
   "lat": 41.877792,
   "lng": -87.636524
  },
  {
   "name": "Alltech Tracking Llc",
   "address": "328 S Jefferson St 5Th 550",
   "zip": "60661",
   "lat": 41.877094,
   "lng": -87.642655
  },
  {
   "name": "Allure Nail Spa Selina Inc.",
   "address": "915 W Washington Blvd",
   "zip": "60607",
   "lat": 41.882983,
   "lng": -87.650402,
   "category": "salon"
  },
  {
   "name": "Aloha Poke Co.",
   "address": "125 S Clark St  #100 - 08",
   "zip": "60603",
   "lat": 41.879989,
   "lng": -87.630689
  },
  {
   "name": "Aloha Print Group",
   "address": "141 W Jackson Blvd  A100A",
   "zip": "60604",
   "lat": 41.878026,
   "lng": -87.632062
  },
  {
   "name": "Alonti Catering Kitchen",
   "address": "401 S La Salle St Ground",
   "zip": "60605",
   "lat": 41.876814,
   "lng": -87.631623,
   "category": "restaurant"
  },
  {
   "name": "Alphagraphics",
   "address": "1017 W Washington Blvd",
   "zip": "60607",
   "lat": 41.882939,
   "lng": -87.652824
  },
  {
   "name": "Altegra Health Operating Company",
   "address": "55 W Monroe St 17Th 1750",
   "zip": "60603",
   "lat": 41.880599,
   "lng": -87.629907
  },
  {
   "name": "Alvarez & Marsal Claims Management Services, LLC",
   "address": "540 W Madison St  1800",
   "zip": "60661",
   "lat": 41.881966,
   "lng": -87.641276
  },
  {
   "name": "Alvarez & Marsal Corporate Performance Improvement, LLC",
   "address": "540 W Madison St  1800",
   "zip": "60661",
   "lat": 41.881966,
   "lng": -87.641276
  },
  {
   "name": "Alvarez & Marsal Disputes and Investigations, LLC",
   "address": "540 W Madison St  1800",
   "zip": "60661",
   "lat": 41.881966,
   "lng": -87.641276
  },
  {
   "name": "Alvarez & Marsal Healthcare Industry Group, LLC",
   "address": "540 W Madison St  1800",
   "zip": "60661",
   "lat": 41.881966,
   "lng": -87.641276
  },
  {
   "name": "Alvarez & Marsal Holdings",
   "address": "540 W Madison St  1800",
   "zip": "60661",
   "lat": 41.881966,
   "lng": -87.641276
  },
  {
   "name": "Alvarez & Marsal North America, LLC",
   "address": "540 W Madison St  1800",
   "zip": "60661",
   "lat": 41.881966,
   "lng": -87.641276
  },
  {
   "name": "Alvarez & Marsal Public Sector Services, LLC",
   "address": "540 W Madison St  1800",
   "zip": "60661",
   "lat": 41.881966,
   "lng": -87.641276
  },
  {
   "name": "Alvarez & Marsal Transaction Advisory Group, LLC",
   "address": "540 W Madison St  1800",
   "zip": "60661",
   "lat": 41.881966,
   "lng": -87.641276
  },
  {
   "name": "Alvarez & Marsal Valuation Services, LLC",
   "address": "540 W Madison St  1800",
   "zip": "60661",
   "lat": 41.881966,
   "lng": -87.641276
  },
  {
   "name": "Amazing Tenders Halsted",
   "address": "120 S Halsted St 1St D",
   "zip": "60661",
   "lat": 41.879822,
   "lng": -87.647448,
   "category": "restaurant"
  },
  {
   "name": "Amazon Data Services, Inc.",
   "address": "427 S La Salle St 3Rd Fl #303-1",
   "zip": "60605",
   "lat": 41.876216,
   "lng": -87.631602
  },
  {
   "name": "Amazon.Com Services Llc",
   "address": "750 S Halsted St",
   "zip": "60607",
   "lat": 41.872004,
   "lng": -87.647173
  },
  {
   "name": "Amc Dine-In Theatres Block 37",
   "address": "108 N State St 4 434",
   "zip": "60602",
   "lat": 41.883423,
   "lng": -87.628022,
   "category": "restaurant"
  },
  {
   "name": "America'S Best Contacts & Eyeglasses",
   "address": "214 S Wabash Ave 1",
   "zip": "60604",
   "lat": 41.879134,
   "lng": -87.626258
  },
  {
   "name": "American Arbitration Association, Inc.",
   "address": "150 N Michigan Ave 30Th 3050",
   "zip": "60601",
   "lat": 41.884531,
   "lng": -87.624602
  },
  {
   "name": "American College of Healthcare Executives",
   "address": "300 S Riverside Plz 19 1900",
   "zip": "60606",
   "lat": 41.877975,
   "lng": -87.638422
  },
  {
   "name": "American Color Labs Inc",
   "address": "611 W Adams St  1- 2",
   "zip": "60661",
   "lat": 41.87916,
   "lng": -87.643087
  },
  {
   "name": "American Industrial Transport, Inc.",
   "address": "300 S Riverside Plz  1925",
   "zip": "60606",
   "lat": 41.877975,
   "lng": -87.638422
  },
  {
   "name": "American Marketing Serv Inc",
   "address": "527 S Wells St  400",
   "zip": "60607",
   "lat": 41.875089,
   "lng": -87.633499
  },
  {
   "name": "American Surveying & Engineering, Ltd",
   "address": "120 N La Salle St 33 3350",
   "zip": "60602",
   "lat": 41.883761,
   "lng": -87.632569
  },
  {
   "name": "American Writers Museum",
   "address": "180 N Michigan Ave  200",
   "zip": "60601",
   "lat": 41.885254,
   "lng": -87.624635
  },
  {
   "name": "Americana Submarine",
   "address": "400 S Clark St 1St",
   "zip": "60605",
   "lat": 41.876818,
   "lng": -87.630894,
   "category": "restaurant"
  },
  {
   "name": "Americas Watches Jewelry Repair Inc.",
   "address": "5 S Wabash Ave 11 119",
   "zip": "60603",
   "lat": 41.881922,
   "lng": -87.626063
  },
  {
   "name": "AmeriSpec",
   "address": "6 E Monroe St 4Th 400",
   "zip": "60602",
   "lat": 41.880878,
   "lng": -87.627518
  },
  {
   "name": "Ames",
   "address": "1016 W Jackson Blvd",
   "zip": "60607",
   "lat": 41.877968,
   "lng": -87.652643
  },
  {
   "name": "Ames Construction",
   "address": "1016 W Jackson Blvd  40",
   "zip": "60607",
   "lat": 41.877968,
   "lng": -87.652643
  },
  {
   "name": "Amorino Gelato Al Naturale",
   "address": "38 S Michigan Ave 1St",
   "zip": "60603",
   "lat": 41.881179,
   "lng": -87.624488,
   "category": "restaurant"
  },
  {
   "name": "Amwins Insurance Brokerage LLC",
   "address": "10 S La Salle St  2000",
   "zip": "60603",
   "lat": 41.881675,
   "lng": -87.632504
  },
  {
   "name": "Amy Kenny-Vega",
   "address": "111 W Washington St 17Th 1700",
   "zip": "60602",
   "lat": 41.883101,
   "lng": -87.631263
  },
  {
   "name": "Ancient Grounds",
   "address": "1050 W Van Buren St Ground Floor",
   "zip": "60607",
   "lat": 41.876681,
   "lng": -87.653926,
   "category": "restaurant"
  },
  {
   "name": "Ancora Associates, Inc.",
   "address": "332 S Michigan Ave  900",
   "zip": "60604",
   "lat": 41.87748,
   "lng": -87.624447
  },
  {
   "name": "Andreana'S Diamonds Inc.",
   "address": "7 S Wabash Ave 1 Booth 14-1",
   "zip": "60603",
   "lat": 41.881873,
   "lng": -87.626061
  },
  {
   "name": "Andrew Collings Photography Inc",
   "address": "223 W Jackson Blvd 8 850",
   "zip": "60606",
   "lat": 41.878002,
   "lng": -87.634409
  },
  {
   "name": "Angela'S Charter Service, Inc.",
   "address": "123 N Desplaines St 8Th 804",
   "zip": "60661",
   "lat": 41.88391,
   "lng": -87.644042
  },
  {
   "name": "Animal Advocate Pet Hospital",
   "address": "1061 W Jackson Blvd  A",
   "zip": "60607",
   "lat": 41.877726,
   "lng": -87.654285
  },
  {
   "name": "Anjack Jewelry",
   "address": "5 S Wabash Ave 8Th 803",
   "zip": "60603",
   "lat": 41.881922,
   "lng": -87.626063
  },
  {
   "name": "Ann Taylor Factory 2264",
   "address": "12 N Wabash Ave",
   "zip": "60602",
   "lat": 41.882349,
   "lng": -87.626368
  },
  {
   "name": "Antares Capital Lp",
   "address": "320 S Canal St 41-43 4200",
   "zip": "60606",
   "lat": 41.877372,
   "lng": -87.639692
  },
  {
   "name": "Anthropologie #533",
   "address": "108 N State St",
   "zip": "60602",
   "lat": 41.883423,
   "lng": -87.628022
  },
  {
   "name": "April May Llc",
   "address": "1250 S Michigan Ave 9 909",
   "zip": "60605",
   "lat": 41.866074,
   "lng": -87.624268
  },
  {
   "name": "APS and Associates LLC",
   "address": "105 W Madison St 10 1000",
   "zip": "60602",
   "lat": 41.881866,
   "lng": -87.631066
  },
  {
   "name": "Arabella'S Casting Jewelry Llc",
   "address": "5 S Wabash Ave 7Tth 710",
   "zip": "60603",
   "lat": 41.881922,
   "lng": -87.626063
  },
  {
   "name": "Aramark - Freshii Store #1889",
   "address": "1154 S Clark St 1St",
   "zip": "60605",
   "lat": 41.867571,
   "lng": -87.630586,
   "category": "restaurant"
  },
  {
   "name": "Aramark @ Harris Bank",
   "address": "320 S Canal St 16-17",
   "zip": "60606",
   "lat": 41.877372,
   "lng": -87.639692,
   "category": "restaurant"
  },
  {
   "name": "Arby'S",
   "address": "5 N Wells St 1St Floor",
   "zip": "60606",
   "lat": 41.882088,
   "lng": -87.633685,
   "category": "restaurant"
  },
  {
   "name": "Archive Salon",
   "address": "70 W Madison St Grnd 50",
   "zip": "60602",
   "lat": 41.882093,
   "lng": -87.630392,
   "category": "salon"
  },
  {
   "name": "Arepa George",
   "address": "219 S Dearborn St 2",
   "zip": "60604",
   "lat": 41.878967,
   "lng": -87.629193,
   "category": "restaurant"
  },
  {
   "name": "Arlo Chicago & About Last Knife",
   "address": "168 N Michigan Ave 1-17",
   "zip": "60601",
   "lat": 41.884965,
   "lng": -87.624624,
   "category": "restaurant"
  },
  {
   "name": "Armaggedon &  Amk Systems",
   "address": "77 W Washington St 10Th 1020",
   "zip": "60602",
   "lat": 41.883101,
   "lng": -87.630331
  },
  {
   "name": "Arnold Scott Harris, P.C.",
   "address": "111 W Jackson Blvd 6Th 600",
   "zip": "60604",
   "lat": 41.878034,
   "lng": -87.631171
  },
  {
   "name": "Arnold Scott Harris, P.C.",
   "address": "111 W Jackson Blvd 6 600",
   "zip": "60604",
   "lat": 41.878034,
   "lng": -87.631171
  },
  {
   "name": "Art Engravers",
   "address": "29 E Madison St  1301",
   "zip": "60602",
   "lat": 41.881965,
   "lng": -87.626793
  },
  {
   "name": "Artcarved3d LLC",
   "address": "29 E Madison St 18 1850",
   "zip": "60602",
   "lat": 41.881965,
   "lng": -87.626793
  },
  {
   "name": "Artemida Construction",
   "address": "659 W Randolph St 15Th 1509",
   "zip": "60661",
   "lat": 41.884309,
   "lng": -87.64503
  },
  {
   "name": "Artisan For Hire Inc",
   "address": "216 S Jefferson St",
   "zip": "60661",
   "lat": 41.878733,
   "lng": -87.642709
  },
  {
   "name": "Arturo Express",
   "address": "130 S Canal St",
   "zip": "60606",
   "lat": 41.879616,
   "lng": -87.639765,
   "category": "restaurant"
  },
  {
   "name": "Asadito Taqueria/Wok N Bao",
   "address": "540 W Madison St",
   "zip": "60661",
   "lat": 41.881966,
   "lng": -87.641276,
   "category": "restaurant"
  },
  {
   "name": "Ascend Now",
   "address": "565 W Quincy St 11 1101",
   "zip": "60661",
   "lat": 41.878536,
   "lng": -87.642219
  },
  {
   "name": "Ashland Commercial, Llc",
   "address": "1608 W Adams St 2,3,4",
   "zip": "60612",
   "lat": 41.878998,
   "lng": -87.667187
  },
  {
   "name": "Ashwood Properties Inc",
   "address": "228 S Wabash Ave  410",
   "zip": "60604",
   "lat": 41.878812,
   "lng": -87.626247
  },
  {
   "name": "Asian Gems,Inc",
   "address": "29 E Madison St  1803",
   "zip": "60602",
   "lat": 41.881965,
   "lng": -87.626793
  },
  {
   "name": "AssetMark, Inc.",
   "address": "200 W Madison St 22Nd 2200",
   "zip": "60606",
   "lat": 41.882055,
   "lng": -87.6339
  },
  {
   "name": "AT&T Mobility",
   "address": "15 S Halsted St",
   "zip": "60661",
   "lat": 41.881311,
   "lng": -87.647197
  },
  {
   "name": "AT&T Mobility",
   "address": "16 N State St",
   "zip": "60602",
   "lat": 41.882404,
   "lng": -87.627991
  },
  {
   "name": "Atema, Inc.",
   "address": "728 W Jackson Blvd 10 1001",
   "zip": "60661",
   "lat": 41.878081,
   "lng": -87.6453
  },
  {
   "name": "Athena Restaurant",
   "address": "212 S Halsted St 1St",
   "zip": "60661",
   "lat": 41.878801,
   "lng": -87.647416,
   "category": "restaurant"
  },
  {
   "name": "Athenian Candle Co Llc",
   "address": "300 S Halsted St",
   "zip": "60661",
   "lat": 41.877915,
   "lng": -87.647388
  },
  {
   "name": "Ativo Capital Management, LLC",
   "address": "120 N La Salle St 11 1160",
   "zip": "60602",
   "lat": 41.883761,
   "lng": -87.632569
  },
  {
   "name": "Atlantic  Diamond Company",
   "address": "111 N Wabash Ave 19Th 1909",
   "zip": "60602",
   "lat": 41.883526,
   "lng": -87.626082
  },
  {
   "name": "Atlas Technology Solutions Inc",
   "address": "300 S Wacker Dr  1680",
   "zip": "60606",
   "lat": 41.878011,
   "lng": -87.637059
  },
  {
   "name": "Atwood",
   "address": "1 W Washington St 1",
   "zip": "60602",
   "lat": 41.883109,
   "lng": -87.627949,
   "category": "restaurant"
  },
  {
   "name": "Auction.com",
   "address": "100 N La Salle St  1400",
   "zip": "60602",
   "lat": 41.883237,
   "lng": -87.632556
  },
  {
   "name": "Auditorium Theatre'S Katten/Landau Studio",
   "address": "425 S Wabash Ave 4Th 413",
   "zip": "60605",
   "lat": 41.876355,
   "lng": -87.625896
  },
  {
   "name": "Auntie Anne'S",
   "address": "151 N Michigan Ave  C44",
   "zip": "60601",
   "lat": 41.88454,
   "lng": -87.624309,
   "category": "restaurant"
  },
  {
   "name": "Auntie Annes/Cinnabon",
   "address": "163 N Michigan Ave 1",
   "zip": "60601",
   "lat": 41.884829,
   "lng": -87.624325,
   "category": "restaurant"
  },
  {
   "name": "Avec",
   "address": "615 W Randolph St Ll-3Rd Fl",
   "zip": "60661",
   "lat": 41.884321,
   "lng": -87.643425,
   "category": "restaurant"
  },
  {
   "name": "Avi Diamond Company LLC",
   "address": "67 E Madison St 16 1610",
   "zip": "60603",
   "lat": 41.881985,
   "lng": -87.625444
  },
  {
   "name": "Avi The Gem Guy",
   "address": "5 S Wabash Ave 10 1010",
   "zip": "60603",
   "lat": 41.881922,
   "lng": -87.626063
  },
  {
   "name": "Avionos, LLC",
   "address": "33 N La Salle St  1350",
   "zip": "60602",
   "lat": 41.882798,
   "lng": -87.632242
  },
  {
   "name": "Avora",
   "address": "150 W Roosevelt Rd",
   "zip": "60605",
   "lat": 41.867453,
   "lng": -87.632334
  },
  {
   "name": "Awad Eyecare, S.C.",
   "address": "1657 W Adams St 4",
   "zip": "60612",
   "lat": 41.87875,
   "lng": -87.669024
  },
  {
   "name": "Axess Chronos",
   "address": "909 W Washington Blvd  408",
   "zip": "60607",
   "lat": 41.882987,
   "lng": -87.65014
  },
  {
   "name": "Axios Architects & Consultants, Ltd.",
   "address": "801 W Adams St 2Nd 205",
   "zip": "60607",
   "lat": 41.879106,
   "lng": -87.647336
  },
  {
   "name": "Azcon Metals",
   "address": "820 W Jackson Blvd 4 425",
   "zip": "60607",
   "lat": 41.878043,
   "lng": -87.64818
  },
  {
   "name": "Baako Build Llc",
   "address": "332 S Michigan Ave 9Th 900",
   "zip": "60604",
   "lat": 41.87748,
   "lng": -87.624447
  },
  {
   "name": "Bagel & Bean",
   "address": "111 W Jackson Blvd 1St 105",
   "zip": "60604",
   "lat": 41.878034,
   "lng": -87.631171,
   "category": "restaurant"
  },
  {
   "name": "Balanced Flow Wellness Llc",
   "address": "17 E Monroe St 5Th",
   "zip": "60603",
   "lat": 41.880665,
   "lng": -87.627089,
   "category": "health"
  },
  {
   "name": "Balani Custom Clothiers",
   "address": "55 W Monroe St 1St 110",
   "zip": "60603",
   "lat": 41.880599,
   "lng": -87.629907
  },
  {
   "name": "Balyasny Asset Management L.P.",
   "address": "444 W Lake St 50Th Floor",
   "zip": "60606",
   "lat": 41.88583,
   "lng": -87.639806
  },
  {
   "name": "Balzekas Museum Of Lithuanian Culture",
   "address": "172 N Michigan Ave 1",
   "zip": "60601",
   "lat": 41.885061,
   "lng": -87.624628
  },
  {
   "name": "Banana Glades, Llc",
   "address": "24 S Morgan St 1-3",
   "zip": "60607",
   "lat": 41.880982,
   "lng": -87.652155
  },
  {
   "name": "Banana Republic 4349",
   "address": "108 N State St",
   "zip": "60602",
   "lat": 41.883423,
   "lng": -87.628022
  },
  {
   "name": "Banc Of America Leasing & Captial, Llc",
   "address": "540 W Madison St 22",
   "zip": "60661",
   "lat": 41.881966,
   "lng": -87.641276
  },
  {
   "name": "Bandol",
   "address": "100 W Monroe St 1St & 24",
   "zip": "60603",
   "lat": 41.880805,
   "lng": -87.630929,
   "category": "restaurant"
  },
  {
   "name": "Banner Northtown S%",
   "address": "1255 S Wabash Ave",
   "zip": "60605",
   "lat": 41.865948,
   "lng": -87.625651
  },
  {
   "name": "Banner Property Management, Llc",
   "address": "300 S Riverside Plz 12 1250",
   "zip": "60606",
   "lat": 41.877975,
   "lng": -87.638422
  },
  {
   "name": "Barangaroos Aussie Pies",
   "address": "180 W Washington St",
   "zip": "60602",
   "lat": 41.883318,
   "lng": -87.633297,
   "category": "restaurant"
  },
  {
   "name": "Base Salon",
   "address": "31 N Morgan St 1St",
   "zip": "60607",
   "lat": 41.882691,
   "lng": -87.651912,
   "category": "salon"
  },
  {
   "name": "Basecamp Fitness",
   "address": "944 W Madison St Main Floor",
   "zip": "60607",
   "lat": 41.88182,
   "lng": -87.651453,
   "category": "fitness"
  },
  {
   "name": "Baskin Robbins",
   "address": "1231 S Wabash Ave",
   "zip": "60605",
   "lat": 41.866572,
   "lng": -87.625664,
   "category": "restaurant"
  },
  {
   "name": "Baskin Robbins",
   "address": "31 E Adams St",
   "zip": "60603",
   "lat": 41.879399,
   "lng": -87.626559,
   "category": "restaurant"
  },
  {
   "name": "Bb Jewelry Designs, Incorporated",
   "address": "5 S Wabash Ave 4Th 404",
   "zip": "60603",
   "lat": 41.881922,
   "lng": -87.626063
  },
  {
   "name": "BBJ Group LLC",
   "address": "140 S Dearborn St 15Th 1520",
   "zip": "60603",
   "lat": 41.879676,
   "lng": -87.629502
  },
  {
   "name": "Bci",
   "address": "141 W Jackson Blvd  300A",
   "zip": "60604",
   "lat": 41.878026,
   "lng": -87.632062
  },
  {
   "name": "BCSP 231 Property LLC",
   "address": "231 S La Salle St 6 625",
   "zip": "60604",
   "lat": 41.878543,
   "lng": -87.632121
  },
  {
   "name": "Beacon Hill Solutions Group, Llc",
   "address": "200 W Madison St  1100",
   "zip": "60606",
   "lat": 41.882055,
   "lng": -87.6339
  },
  {
   "name": "Beacon Hill Solutions Group, Llc",
   "address": "70 W Madison St  1625",
   "zip": "60602",
   "lat": 41.882093,
   "lng": -87.630392
  },
  {
   "name": "Bear/Byford Joint Venture Llc",
   "address": "1 N La Salle St  2700",
   "zip": "60602",
   "lat": 41.88199,
   "lng": -87.632213
  },
  {
   "name": "Bebon Office Machines",
   "address": "234 S Wabash Ave 2Nd",
   "zip": "60604",
   "lat": 41.878674,
   "lng": -87.626242
  },
  {
   "name": "Beehive Shoeworks Inc",
   "address": "35 N Wells St 1 Lobby",
   "zip": "60606",
   "lat": 41.882852,
   "lng": -87.63371
  },
  {
   "name": "Beggar'S Pizza",
   "address": "310 S Clinton St 1St",
   "zip": "60661",
   "lat": 41.877659,
   "lng": -87.6412,
   "category": "restaurant"
  },
  {
   "name": "Belgravia Group, Ltd.",
   "address": "1101 W Monroe St 2Nd 200",
   "zip": "60607",
   "lat": 41.880256,
   "lng": -87.654778
  },
  {
   "name": "Bella Gold Jewelry",
   "address": "5 S Wabash Ave 6 608",
   "zip": "60603",
   "lat": 41.881922,
   "lng": -87.626063
  },
  {
   "name": "Bella Pelle Salon & Spa",
   "address": "1044 W Taylor St 1St",
   "zip": "60607",
   "lat": 41.869589,
   "lng": -87.652915,
   "category": "salon"
  },
  {
   "name": "Benjyehuda",
   "address": "10 S La Salle St",
   "zip": "60603",
   "lat": 41.881675,
   "lng": -87.632504,
   "category": "restaurant"
  },
  {
   "name": "Benjyehuda",
   "address": "300 S Wacker Dr First 102",
   "zip": "60606",
   "lat": 41.878011,
   "lng": -87.637059,
   "category": "restaurant"
  },
  {
   "name": "Berco Company",
   "address": "29 E Madison St  550",
   "zip": "60602",
   "lat": 41.881965,
   "lng": -87.626793
  },
  {
   "name": "Bereket",
   "address": "333 S Franklin St",
   "zip": "60606",
   "lat": 41.877305,
   "lng": -87.635042,
   "category": "restaurant"
  },
  {
   "name": "Berghoff'S",
   "address": "17 W Adams St Bsmt & 1St",
   "zip": "60603",
   "lat": 41.879342,
   "lng": -87.628412,
   "category": "restaurant"
  },
  {
   "name": "Berkeley Research Group, Llc",
   "address": "70 W Madison St  5000",
   "zip": "60602",
   "lat": 41.882093,
   "lng": -87.630392
  },
  {
   "name": "Berlin Packaging L.L.C.",
   "address": "525 W Monroe St 14Th 1400",
   "zip": "60661",
   "lat": 41.880463,
   "lng": -87.640804
  },
  {
   "name": "Bert Green Fine Art",
   "address": "8 S Michigan Ave 6 620",
   "zip": "60603",
   "lat": 41.8819,
   "lng": -87.624507
  },
  {
   "name": "Best Cleaners De La O",
   "address": "170 W Washington St 3",
   "zip": "60602",
   "lat": 41.883317,
   "lng": -87.633024,
   "category": "cleaners"
  },
  {
   "name": "Best Imaging Solutions, Inc.",
   "address": "55 E Monroe St Lower Level F",
   "zip": "60603",
   "lat": 41.880688,
   "lng": -87.625644
  },
  {
   "name": "Bi Bi Bop",
   "address": "24 E Jackson Blvd 1",
   "zip": "60604",
   "lat": 41.878338,
   "lng": -87.62682,
   "category": "restaurant"
  },
  {
   "name": "Bien Me Sabe Venezuelan Arepa Bar",
   "address": "29 E Adams St 1St",
   "zip": "60603",
   "lat": 41.879397,
   "lng": -87.626631,
   "category": "bar"
  },
  {
   "name": "Big City Optical",
   "address": "9 W Madison St First",
   "zip": "60602",
   "lat": 41.881905,
   "lng": -87.628169,
   "category": "health"
  },
  {
   "name": "Big Shoulders Coffee",
   "address": "141 W Jackson Blvd 1St 143 A",
   "zip": "60604",
   "lat": 41.878026,
   "lng": -87.632062,
   "category": "cafe"
  },
  {
   "name": "Big Shoulders Coffee",
   "address": "311 S Wacker Dr 1St 110",
   "zip": "60606",
   "lat": 41.877792,
   "lng": -87.636524,
   "category": "cafe"
  },
  {
   "name": "Big Shoulders Fund",
   "address": "212 W Van Buren St  900",
   "zip": "60607",
   "lat": 41.87695,
   "lng": -87.634104
  },
  {
   "name": "Bike And Roll Chicago",
   "address": "34 S Michigan Ave Ground Level Storefront",
   "zip": "60603",
   "lat": 41.881275,
   "lng": -87.62449
  },
  {
   "name": "Bikram Yoga Chicago",
   "address": "611 W Adams St 3",
   "zip": "60661",
   "lat": 41.87916,
   "lng": -87.643087,
   "category": "fitness"
  },
  {
   "name": "Bikram Yoga West Loop",
   "address": "611 W Adams St 3",
   "zip": "60661",
   "lat": 41.87916,
   "lng": -87.643087,
   "category": "fitness"
  },
  {
   "name": "Billy Goat Tavern",
   "address": "1535 W Madison St",
   "zip": "60607",
   "lat": 41.881353,
   "lng": -87.665916,
   "category": "bar"
  },
  {
   "name": "Billys Goat'S",
   "address": "1535 W Madison St",
   "zip": "60607",
   "lat": 41.881353,
   "lng": -87.665916,
   "category": "restaurant"
  },
  {
   "name": "Bin There Dump That Chicago",
   "address": "332 S Michigan Ave  121-A93",
   "zip": "60604",
   "lat": 41.87748,
   "lng": -87.624447
  },
  {
   "name": "Bini Sisters",
   "address": "332 S Michigan Ave 9 900",
   "zip": "60604",
   "lat": 41.87748,
   "lng": -87.624447
  },
  {
   "name": "Bio Nail",
   "address": "1159 W Madison St 1St",
   "zip": "60607",
   "lat": 41.881517,
   "lng": -87.656557,
   "category": "salon"
  },
  {
   "name": "Bittersweet",
   "address": "850 W Monroe St",
   "zip": "60607",
   "lat": 41.880565,
   "lng": -87.649361,
   "category": "restaurant"
  },
  {
   "name": "Bkb West Loop",
   "address": "100 S Morgan St Mez-1",
   "zip": "60607",
   "lat": 41.880344,
   "lng": -87.652135
  },
  {
   "name": "Blame Butter",
   "address": "130 S Canal St  9Q",
   "zip": "60606",
   "lat": 41.879616,
   "lng": -87.639765
  },
  {
   "name": "Blaze",
   "address": "103 N Wells St",
   "zip": "60606",
   "lat": 41.883296,
   "lng": -87.633713
  },
  {
   "name": "Blaze Pizza",
   "address": "24 S Clinton St",
   "zip": "60661",
   "lat": 41.8811,
   "lng": -87.641315,
   "category": "restaurant"
  },
  {
   "name": "Blinderman Construction Co Inc",
   "address": "224 N Desplaines St 6 650",
   "zip": "60661",
   "lat": 41.886562,
   "lng": -87.644417
  },
  {
   "name": "Bliss Bowls Acai",
   "address": "115 N Wabash Ave  101",
   "zip": "60602",
   "lat": 41.883621,
   "lng": -87.626085,
   "category": "restaurant"
  },
  {
   "name": "Bloc Dispensary Wells",
   "address": "400 S Wells St",
   "zip": "60607",
   "lat": 41.876785,
   "lng": -87.633839
  },
  {
   "name": "Blowout Junkie",
   "address": "1219 W Madison St 1St",
   "zip": "60607",
   "lat": 41.881492,
   "lng": -87.657908
  },
  {
   "name": "Bluebird Salon",
   "address": "1148 W Monroe St 1 C1",
   "zip": "60607",
   "lat": 41.880448,
   "lng": -87.656602,
   "category": "salon"
  },
  {
   "name": "Blueoak Health Llc",
   "address": "211 N Clinton St 2 2N",
   "zip": "60661",
   "lat": 41.886072,
   "lng": -87.641169
  },
  {
   "name": "Bocaditos",
   "address": "1140 W Madison St 1",
   "zip": "60607",
   "lat": 41.881748,
   "lng": -87.655937,
   "category": "restaurant"
  },
  {
   "name": "BofA Securities, Inc.",
   "address": "540 W Madison St 22 & 28",
   "zip": "60661",
   "lat": 41.881966,
   "lng": -87.641276
  },
  {
   "name": "BofA Securities, Inc.",
   "address": "135 S La Salle St 03 - 11",
   "zip": "60603",
   "lat": 41.880016,
   "lng": -87.632162
  },
  {
   "name": "Boka Catering Group",
   "address": "624 W Lake St 1",
   "zip": "60661",
   "lat": 41.88581,
   "lng": -87.643907,
   "category": "restaurant"
  },
  {
   "name": "Bombay Wraps Co",
   "address": "122 N Wells St 1St 007",
   "zip": "60606",
   "lat": 41.883813,
   "lng": -87.634022,
   "category": "restaurant"
  },
  {
   "name": "Bond Vet West Loop",
   "address": "845 W Madison St",
   "zip": "60607",
   "lat": 41.88164,
   "lng": -87.64911
  },
  {
   "name": "Bonivino'S Inc",
   "address": "109 - 111 W Van Buren St",
   "zip": "60605",
   "lat": 41.876771,
   "lng": -87.631061,
   "category": "restaurant"
  },
  {
   "name": "Bp",
   "address": "50 W Ida B Wells Dr 1",
   "zip": "60605",
   "lat": 41.875735,
   "lng": -87.629439,
   "category": "restaurant"
  },
  {
   "name": "Bradbury Ventures",
   "address": "944 W Madison St 1",
   "zip": "60607",
   "lat": 41.88182,
   "lng": -87.651453
  },
  {
   "name": "Bradford Jay Harris",
   "address": "166 W Washington St  750",
   "zip": "60602",
   "lat": 41.883317,
   "lng": -87.632917
  },
  {
   "name": "Brain Builders Academy",
   "address": "225 S Sangamon St 1St 100",
   "zip": "60607",
   "lat": 41.878376,
   "lng": -87.650609
  },
  {
   "name": "Brain Injury Association of Illinois",
   "address": "20 N Clark St 30",
   "zip": "60602",
   "lat": 41.882434,
   "lng": -87.631037
  },
  {
   "name": "Bridge Industrial",
   "address": "444 W Lake St 31 3125",
   "zip": "60606",
   "lat": 41.88583,
   "lng": -87.639806
  },
  {
   "name": "Bridge Industrial",
   "address": "444 W Lake St  3100",
   "zip": "60606",
   "lat": 41.88583,
   "lng": -87.639806
  },
  {
   "name": "Bridget Christian Designs",
   "address": "5 S Wabash Ave  2103",
   "zip": "60603",
   "lat": 41.881922,
   "lng": -87.626063
  },
  {
   "name": "Bright Horizons",
   "address": "40 N Dearborn St 1 1",
   "zip": "60602",
   "lat": 41.882942,
   "lng": -87.62958
  },
  {
   "name": "Bright Horizons Chicago West Loop",
   "address": "500 W Monroe St 1St",
   "zip": "60661",
   "lat": 41.880699,
   "lng": -87.639725
  },
  {
   "name": "BrightPath West Loop",
   "address": "310 S Racine Ave Floors 1-2",
   "zip": "60607",
   "lat": 41.877431,
   "lng": -87.657158
  },
  {
   "name": "Brightwok Kitchen",
   "address": "21 E Adams St Storef",
   "zip": "60603",
   "lat": 41.87939,
   "lng": -87.62692,
   "category": "restaurant"
  },
  {
   "name": "Broadway Cafe",
   "address": "22 E Adams St",
   "zip": "60603",
   "lat": 41.879609,
   "lng": -87.626927,
   "category": "cafe"
  },
  {
   "name": "Broadway In Chicago",
   "address": "17 N State St  810",
   "zip": "60602",
   "lat": 41.882457,
   "lng": -87.6277
  },
  {
   "name": "Broken English Taco Pub",
   "address": "75 E Lake St 1",
   "zip": "60601",
   "lat": 41.885624,
   "lng": -87.625296,
   "category": "bar"
  },
  {
   "name": "Bronner Group Llc",
   "address": "120 N La Salle St 13Th 1300",
   "zip": "60602",
   "lat": 41.883761,
   "lng": -87.632569
  },
  {
   "name": "Brown Brothers Harriman & Co.",
   "address": "320 S Canal St  4625",
   "zip": "60606",
   "lat": 41.877372,
   "lng": -87.639692
  },
  {
   "name": "Bru Chicago Wash",
   "address": "180 W Washington St 1 100W",
   "zip": "60602",
   "lat": 41.883318,
   "lng": -87.633297,
   "category": "restaurant"
  },
  {
   "name": "Bryan Kilfoy Designs",
   "address": "29 E Madison St 14 1403",
   "zip": "60602",
   "lat": 41.881965,
   "lng": -87.626793
  },
  {
   "name": "Bryan M. Santos",
   "address": "111 W Washington St 4Th 450",
   "zip": "60602",
   "lat": 41.883101,
   "lng": -87.631263
  },
  {
   "name": "Bubblelicious Milk Tea And Fruit Tea",
   "address": "179 N Michigan Ave 1St",
   "zip": "60601",
   "lat": 41.885212,
   "lng": -87.624339,
   "category": "restaurant"
  },
  {
   "name": "Buck Development Llc",
   "address": "33 N La Salle St  Suite 1010",
   "zip": "60602",
   "lat": 41.882798,
   "lng": -87.632242
  },
  {
   "name": "Buck Management Group LLC",
   "address": "855 W Madison St",
   "zip": "60607",
   "lat": 41.881631,
   "lng": -87.649548
  },
  {
   "name": "Buck Management Group LLC",
   "address": "209 S La Salle St",
   "zip": "60604",
   "lat": 41.879115,
   "lng": -87.632137
  },
  {
   "name": "Buck Management Group LLC",
   "address": "33 N La Salle St  Suite 1010",
   "zip": "60602",
   "lat": 41.882798,
   "lng": -87.632242
  },
  {
   "name": "Buck Services LLC",
   "address": "33 N La Salle St  Suite 1010",
   "zip": "60602",
   "lat": 41.882798,
   "lng": -87.632242
  },
  {
   "name": "Budlong Southern Chicken Hayden Hall",
   "address": "333 S Wabash Ave 2Nd 120 Space,",
   "zip": "60604",
   "lat": 41.87745,
   "lng": -87.625922,
   "category": "restaurant"
  },
  {
   "name": "Buildcore Agency",
   "address": "122 S Michigan Ave 13Th 1390",
   "zip": "60603",
   "lat": 41.880263,
   "lng": -87.624505
  },
  {
   "name": "Building Permits",
   "address": "55 E Monroe St 38Th 3800",
   "zip": "60603",
   "lat": 41.880688,
   "lng": -87.625644
  },
  {
   "name": "Burger Consulting Group, Inc.",
   "address": "231 S La Salle St 21",
   "zip": "60604",
   "lat": 41.878543,
   "lng": -87.632121
  },
  {
   "name": "Burger King Restaurant",
   "address": "547 W Jackson Blvd 1St",
   "zip": "60661",
   "lat": 41.877914,
   "lng": -87.641405,
   "category": "restaurant"
  },
  {
   "name": "Burlington Coat Factory",
   "address": "1 N State St 1St",
   "zip": "60602",
   "lat": 41.882118,
   "lng": -87.627674
  },
  {
   "name": "Burnham Nationwide, Inc.",
   "address": "111 W Washington St 17Th 1700",
   "zip": "60602",
   "lat": 41.883101,
   "lng": -87.631263
  },
  {
   "name": "Business Sweden",
   "address": "150 N Michigan Ave",
   "zip": "60601",
   "lat": 41.884531,
   "lng": -87.624602
  },
  {
   "name": "Bye Bye Chicago",
   "address": "224 S Michigan Ave",
   "zip": "60604",
   "lat": 41.878937,
   "lng": -87.624483
  },
  {
   "name": "Bye Bye Chicago",
   "address": "30 S Michigan Ave 1St",
   "zip": "60603",
   "lat": 41.881371,
   "lng": -87.624492
  },
  {
   "name": "Byrd'S Hot Chicken",
   "address": "319 S Jefferson St 1",
   "zip": "60661",
   "lat": 41.877399,
   "lng": -87.642371,
   "category": "restaurant"
  },
  {
   "name": "C-Strategies, inc.",
   "address": "128 S Aberdeen St 3 3N",
   "zip": "60607",
   "lat": 41.87946,
   "lng": -87.654774
  },
  {
   "name": "C.Z.'S Inc",
   "address": "5 S Wabash Ave 10 1007",
   "zip": "60603",
   "lat": 41.881922,
   "lng": -87.626063
  },
  {
   "name": "Ca Fortune / Srw",
   "address": "660 W Randolph St Ground Floor",
   "zip": "60661",
   "lat": 41.884529,
   "lng": -87.645117
  },
  {
   "name": "Ca Fortune Sales & Marketing, Llc",
   "address": "651 W Washington Blvd 6 600",
   "zip": "60126",
   "lat": 41.883053,
   "lng": -87.644689
  },
  {
   "name": "cache 310",
   "address": "320 S Canal St 1 Space 0111",
   "zip": "60606",
   "lat": 41.877372,
   "lng": -87.639692,
   "category": "restaurant"
  },
  {
   "name": "Cafecito",
   "address": "7 N Wells St 1St",
   "zip": "60606",
   "lat": 41.882136,
   "lng": -87.633687,
   "category": "restaurant"
  },
  {
   "name": "Caliber Collision Centers",
   "address": "1014 W Van Buren St",
   "zip": "60607",
   "lat": 41.876701,
   "lng": -87.652494
  },
  {
   "name": "Caliber Collision Centers/Caliber Auto Glass",
   "address": "318 S Morgan St",
   "zip": "60607",
   "lat": 41.877263,
   "lng": -87.652039
  },
  {
   "name": "Callan Associates, Llc",
   "address": "120 N La Salle St",
   "zip": "60602",
   "lat": 41.883761,
   "lng": -87.632569
  },
  {
   "name": "Cambridge Realty Capital Ltd. Of Illinois",
   "address": "1 N La Salle St 37 3700",
   "zip": "60602",
   "lat": 41.88199,
   "lng": -87.632213
  },
  {
   "name": "Cambridge Systematics Inc",
   "address": "115 S La Salle St 22Nd 2200",
   "zip": "60603",
   "lat": 41.880206,
   "lng": -87.632168
  },
  {
   "name": "Camiros, Ltd.",
   "address": "411 S Wells St 4Th 400",
   "zip": "60607",
   "lat": 41.876562,
   "lng": -87.63354
  },
  {
   "name": "Canal Market",
   "address": "300 N Canal St 1",
   "zip": "60606",
   "lat": 41.886841,
   "lng": -87.640043,
   "category": "liquor"
  },
  {
   "name": "Canal Partners",
   "address": "230 N Canal St",
   "zip": "60606",
   "lat": 41.886751,
   "lng": -87.64003
  },
  {
   "name": "Canal Street Eatery & Market",
   "address": "320 S Canal St 1-2 Space 0103",
   "zip": "60606",
   "lat": 41.877372,
   "lng": -87.639692,
   "category": "restaurant"
  },
  {
   "name": "Cantina On Madison",
   "address": "69 E Madison St",
   "zip": "60603",
   "lat": 41.881986,
   "lng": -87.625378,
   "category": "restaurant"
  },
  {
   "name": "Capital One Cafe",
   "address": "100 S State St 1 & 2",
   "zip": "60603",
   "lat": 41.880715,
   "lng": -87.627876,
   "category": "cafe"
  },
  {
   "name": "Captured Moments Collective Llc",
   "address": "834 W Monroe St 8Th 803",
   "zip": "60607",
   "lat": 41.880578,
   "lng": -87.648716
  },
  {
   "name": "Cardozo'S Pub",
   "address": "170 W Washington St Ll",
   "zip": "60602",
   "lat": 41.883317,
   "lng": -87.633024,
   "category": "bar"
  },
  {
   "name": "Carecenter Pharmacy #2590",
   "address": "69 W Washington St 1",
   "zip": "60602",
   "lat": 41.8831,
   "lng": -87.630147,
   "category": "health"
  },
  {
   "name": "Careers In Nonprofits",
   "address": "33 N Dearborn St 16 1610",
   "zip": "60602",
   "lat": 41.882806,
   "lng": -87.629281
  },
  {
   "name": "Carm'S",
   "address": "1057 W Polk St",
   "zip": "60607",
   "lat": 41.871726,
   "lng": -87.653487,
   "category": "restaurant"
  },
  {
   "name": "Carnow Conibear & Associates",
   "address": "600 W Van Buren St 5 500",
   "zip": "60607",
   "lat": 41.876842,
   "lng": -87.642573
  },
  {
   "name": "Carol H Williams Advertising",
   "address": "1 S Dearborn St 20Th",
   "zip": "60603",
   "lat": 41.881937,
   "lng": -87.629253
  },
  {
   "name": "Carr Workplaces",
   "address": "20 N Clark St 33 And 34 3300, 3400",
   "zip": "60602",
   "lat": 41.882434,
   "lng": -87.631037
  },
  {
   "name": "Cars.com",
   "address": "300 S Riverside Plz 9, 10 And 11 1000",
   "zip": "60606",
   "lat": 41.877975,
   "lng": -87.638422
  },
  {
   "name": "Casel",
   "address": "815 W Van Buren St 2Nd 210",
   "zip": "60607",
   "lat": 41.876552,
   "lng": -87.64787
  },
  {
   "name": "Casting House",
   "address": "5 S Wabash Ave  S-614",
   "zip": "60603",
   "lat": 41.881922,
   "lng": -87.626063
  },
  {
   "name": "Catalyst Ranch",
   "address": "656 W Randolph St",
   "zip": "60661",
   "lat": 41.884529,
   "lng": -87.644945,
   "category": "restaurant"
  },
  {
   "name": "Cateloose Studio",
   "address": "8 S Michigan Ave 38 3800",
   "zip": "60603",
   "lat": 41.8819,
   "lng": -87.624507
  },
  {
   "name": "Caware Purist Usa Llc",
   "address": "332 S Michigan Ave  900",
   "zip": "60604",
   "lat": 41.87748,
   "lng": -87.624447
  },
  {
   "name": "Cboe Bats, Llc",
   "address": "141 W Jackson Blvd",
   "zip": "60604",
   "lat": 41.878026,
   "lng": -87.632062
  },
  {
   "name": "CBRE, Inc",
   "address": "500 W Jackson Blvd 1 107",
   "zip": "60661",
   "lat": 41.878154,
   "lng": -87.639639
  },
  {
   "name": "Cbre, Inc.",
   "address": "125 S Clark St",
   "zip": "60603",
   "lat": 41.879989,
   "lng": -87.630689
  },
  {
   "name": "CBRE, Inc.",
   "address": "609 W Randolph St",
   "zip": "60661",
   "lat": 41.884322,
   "lng": -87.64316
  },
  {
   "name": "CBRE, Inc.",
   "address": "320 S Canal St",
   "zip": "60606",
   "lat": 41.877372,
   "lng": -87.639692
  },
  {
   "name": "CBRE, Inc.",
   "address": "540 W Madison St  120M",
   "zip": "60661",
   "lat": 41.881966,
   "lng": -87.641276
  },
  {
   "name": "CBRE, Inc.",
   "address": "300 S Riverside Plz  1980",
   "zip": "60606",
   "lat": 41.877975,
   "lng": -87.638422
  },
  {
   "name": "Ccmsi",
   "address": "550 W Van Buren St  1200",
   "zip": "60607",
   "lat": 41.876855,
   "lng": -87.641544
  },
  {
   "name": "CCS Inteior Design Group, Inc.",
   "address": "332 S Michigan Ave 10 1032",
   "zip": "60604",
   "lat": 41.87748,
   "lng": -87.624447
  },
  {
   "name": "Cdw Llc",
   "address": "625 W Adams St",
   "zip": "60661",
   "lat": 41.879153,
   "lng": -87.643703
  },
  {
   "name": "Celine'S Jewelry, Inc.",
   "address": "5 S Wabash Ave 8Th 804",
   "zip": "60603",
   "lat": 41.881922,
   "lng": -87.626063
  },
  {
   "name": "Cellars Market",
   "address": "141 W Jackson Blvd Ll A27",
   "zip": "60604",
   "lat": 41.878026,
   "lng": -87.632062,
   "category": "restaurant"
  },
  {
   "name": "Central Camera Co",
   "address": "230 S Wabash Ave",
   "zip": "60604",
   "lat": 41.878766,
   "lng": -87.626246
  },
  {
   "name": "Central Watch Service",
   "address": "5 S Wabash Ave 8Th 811",
   "zip": "60603",
   "lat": 41.881922,
   "lng": -87.626063
  },
  {
   "name": "Centre For Sustainability And Excellence - North America, Llc",
   "address": "111 W Jackson Blvd  1700",
   "zip": "60604",
   "lat": 41.878034,
   "lng": -87.631171
  },
  {
   "name": "Centro, Inc.",
   "address": "11 E Madison St 6Th",
   "zip": "60602",
   "lat": 41.881955,
   "lng": -87.627429
  },
  {
   "name": "Ceres Cafe",
   "address": "141 W Jackson Blvd 1 A105",
   "zip": "60604",
   "lat": 41.878026,
   "lng": -87.632062,
   "category": "cafe"
  },
  {
   "name": "Ch Distillery",
   "address": "564 W Randolph St 1St&Bsmt",
   "zip": "60661",
   "lat": 41.884543,
   "lng": -87.642331,
   "category": "liquor"
  },
  {
   "name": "Ch2M Hill Engineers, Inc.",
   "address": "525 W Monroe St  1600",
   "zip": "60661",
   "lat": 41.880463,
   "lng": -87.640804
  },
  {
   "name": "Ch2M Hill, Inc.",
   "address": "525 W Monroe St  1600",
   "zip": "60661",
   "lat": 41.880463,
   "lng": -87.640804
  },
  {
   "name": "Champs # 15074",
   "address": "100-112 S State St 1St",
   "zip": "60603",
   "lat": 41.880715,
   "lng": -87.627876
  },
  {
   "name": "Chase Allen Wealth",
   "address": "200 N Jefferson St 18 1801",
   "zip": "60661",
   "lat": 41.885758,
   "lng": -87.642922
  },
  {
   "name": "Cheese And Board",
   "address": "948 W Madison St 1 Cw",
   "zip": "60607",
   "lat": 41.881817,
   "lng": -87.651627,
   "category": "liquor"
  },
  {
   "name": "Chez Joel",
   "address": "1119 W Taylor St  1St",
   "zip": "60607",
   "lat": 41.869332,
   "lng": -87.655107,
   "category": "restaurant"
  },
  {
   "name": "Chi'Tiva Cafe South Loop",
   "address": "1250 S Michigan Ave 1 1E",
   "zip": "60605",
   "lat": 41.866074,
   "lng": -87.624268,
   "category": "cafe"
  },
  {
   "name": "Chicago Athletic Association",
   "address": "12 S Michigan Ave Basement-19",
   "zip": "60603",
   "lat": 41.881803,
   "lng": -87.624504,
   "category": "restaurant"
  },
  {
   "name": "Chicago Athletic Association",
   "address": "12 S Michigan Ave 1-19",
   "zip": "60603",
   "lat": 41.881803,
   "lng": -87.624504
  },
  {
   "name": "Chicago Bridal Jewelers",
   "address": "111 N Wabash Ave 19Th 1906",
   "zip": "60602",
   "lat": 41.883526,
   "lng": -87.626082
  },
  {
   "name": "Chicago Concessions @ Cibc Theatre",
   "address": "18 W Monroe St  Orche",
   "zip": "60603",
   "lat": 41.880848,
   "lng": -87.628436
  },
  {
   "name": "Chicago Concessions @ Cibc Theatre",
   "address": "18 W Monroe St  Balco",
   "zip": "60603",
   "lat": 41.880848,
   "lng": -87.628436,
   "category": "restaurant"
  },
  {
   "name": "Chicago Cozy Comforts / Paleta Belly",
   "address": "75 E Washington St",
   "zip": "60602",
   "lat": 41.883115,
   "lng": -87.625173,
   "category": "restaurant"
  },
  {
   "name": "Chicago Cultural Alliance",
   "address": "600 W Jackson Blvd  100",
   "zip": "60661",
   "lat": 41.878108,
   "lng": -87.642609
  },
  {
   "name": "Chicago Diabetes Project",
   "address": "1074 W Taylor St  #233",
   "zip": "60607",
   "lat": 41.869571,
   "lng": -87.654009
  },
  {
   "name": "Chicago Diamond Experts, Inc.",
   "address": "5 S Wabash Ave 9Th 912",
   "zip": "60603",
   "lat": 41.881922,
   "lng": -87.626063
  },
  {
   "name": "Chicago Findings Inc",
   "address": "5 S Wabash Ave",
   "zip": "60603",
   "lat": 41.881922,
   "lng": -87.626063
  },
  {
   "name": "Chicago French Press",
   "address": "1021 S Delano Ct  West",
   "zip": "60605",
   "lat": 41.86901,
   "lng": -87.632767,
   "category": "restaurant"
  },
  {
   "name": "Chicago Gangsters and Ghosts Tours",
   "address": "111 W Jackson Blvd  1700",
   "zip": "60604",
   "lat": 41.878034,
   "lng": -87.631171
  },
  {
   "name": "Chicago Home Healthcare S.C.",
   "address": "812 W Van Buren St 1 102",
   "zip": "60607",
   "lat": 41.876772,
   "lng": -87.647788
  },
  {
   "name": "Chicago Invisible Setters., Inc",
   "address": "5 S Wabash Ave 8Th 816",
   "zip": "60603",
   "lat": 41.881922,
   "lng": -87.626063
  },
  {
   "name": "Chicago Kics Football Club",
   "address": "1245 S Michigan Ave  152",
   "zip": "60605",
   "lat": 41.866235,
   "lng": -87.623979
  },
  {
   "name": "Chicago Lakefront Cruises Llc",
   "address": "800 S Wells St  M70-3",
   "zip": "60607",
   "lat": 41.872086,
   "lng": -87.633718
  },
  {
   "name": "Chicago Locksmiths",
   "address": "849 W Monroe St  1A",
   "zip": "60607",
   "lat": 41.880347,
   "lng": -87.649274
  },
  {
   "name": "Chicago Metro Parking Services Llc",
   "address": "1210 S Indiana Ave 36 3608",
   "zip": "60605",
   "lat": 41.867137,
   "lng": -87.622694
  },
  {
   "name": "Chicago Minority Supplier Development Council",
   "address": "140 S Dearborn St 1600 1605",
   "zip": "60603",
   "lat": 41.879676,
   "lng": -87.629502
  },
  {
   "name": "Chicago Poster Restoration Inc",
   "address": "5 S Wabash Ave 13 1306",
   "zip": "60603",
   "lat": 41.881922,
   "lng": -87.626063
  },
  {
   "name": "Chicago Prime Tours",
   "address": "30 N Michigan Ave  1315",
   "zip": "60602",
   "lat": 41.882755,
   "lng": -87.624535
  },
  {
   "name": "Chicago Pro Tech",
   "address": "104 S Michigan Ave  1025",
   "zip": "60603",
   "lat": 41.880679,
   "lng": -87.624491
  },
  {
   "name": "Chicago Property Tax Appeal And Recovery",
   "address": "20 N Clark St 33 3300",
   "zip": "60602",
   "lat": 41.882434,
   "lng": -87.631037
  },
  {
   "name": "Chicago Setting Jewelers Corp.",
   "address": "5 S Wabash Ave 8Th 811",
   "zip": "60603",
   "lat": 41.881922,
   "lng": -87.626063
  },
  {
   "name": "Chicago Stars Fc, Llc",
   "address": "820 W Jackson Blvd  700",
   "zip": "60607",
   "lat": 41.878043,
   "lng": -87.64818
  },
  {
   "name": "Chicago Story Piccolo Guliner",
   "address": "106 N Aberdeen St 1 100",
   "zip": "60607",
   "lat": 41.88325,
   "lng": -87.654552
  },
  {
   "name": "Chicago Symphony Orchestra/The Orchestral Association",
   "address": "220 S Michigan Ave",
   "zip": "60604",
   "lat": 41.879029,
   "lng": -87.624486
  },
  {
   "name": "Chicago Trading Company",
   "address": "440 S La Salle St 4Th & 5Th 400",
   "zip": "60605",
   "lat": 41.875888,
   "lng": -87.631885
  },
  {
   "name": "Chicago Upscale Clean Team",
   "address": "125 S Clark St 17Th 1723",
   "zip": "60603",
   "lat": 41.879989,
   "lng": -87.630689
  },
  {
   "name": "Chicago Youth Centers",
   "address": "218 S Wabash Ave  510",
   "zip": "60604",
   "lat": 41.879042,
   "lng": -87.626255
  },
  {
   "name": "Chick-Fil-A Millennium Park",
   "address": "122 S Michigan Ave",
   "zip": "60603",
   "lat": 41.880263,
   "lng": -87.624505,
   "category": "restaurant"
  },
  {
   "name": "Chicken Planet",
   "address": "177 W Van Buren St 1",
   "zip": "60605",
   "lat": 41.876749,
   "lng": -87.633247,
   "category": "restaurant"
  },
  {
   "name": "Chipotle",
   "address": "311 S Wacker Dr 1St",
   "zip": "60606",
   "lat": 41.877792,
   "lng": -87.636524,
   "category": "restaurant"
  },
  {
   "name": "Chipotle Mexican Grill",
   "address": "10 S La Salle St",
   "zip": "60603",
   "lat": 41.881675,
   "lng": -87.632504,
   "category": "restaurant"
  },
  {
   "name": "Chipotle Mexican Grill",
   "address": "10 E Jackson Blvd",
   "zip": "60604",
   "lat": 41.878332,
   "lng": -87.627324,
   "category": "restaurant"
  },
  {
   "name": "Chipotle Mexican Grill",
   "address": "525 W Monroe St  L1A",
   "zip": "60661",
   "lat": 41.880463,
   "lng": -87.640804,
   "category": "restaurant"
  },
  {
   "name": "Chipotle Mexican Grill",
   "address": "8 E Madison St",
   "zip": "60602",
   "lat": 41.882173,
   "lng": -87.627569,
   "category": "restaurant"
  },
  {
   "name": "Chitown Food & Deli",
   "address": "30 E Adams St 1St",
   "zip": "60603",
   "lat": 41.879616,
   "lng": -87.626642,
   "category": "restaurant"
  },
  {
   "name": "Chiya Chai Cafe",
   "address": "79 E Madison St",
   "zip": "60602",
   "lat": 41.881991,
   "lng": -87.625036,
   "category": "cafe"
  },
  {
   "name": "Chowbus",
   "address": "224 S Michigan Ave  400",
   "zip": "60604",
   "lat": 41.878937,
   "lng": -87.624483
  },
  {
   "name": "Christopher Downes",
   "address": "111 W Washington St  450",
   "zip": "60602",
   "lat": 41.883101,
   "lng": -87.631263
  },
  {
   "name": "Christopher Romani",
   "address": "900 S Clark St  1106",
   "zip": "60605",
   "lat": 41.870473,
   "lng": -87.630706
  },
  {
   "name": "Chun Lam",
   "address": "5 S Wabash Ave  800",
   "zip": "60603",
   "lat": 41.881922,
   "lng": -87.626063
  },
  {
   "name": "Cibc Private Wealth Advisors",
   "address": "181 W Madison St 36Th",
   "zip": "60602",
   "lat": 41.881841,
   "lng": -87.633255
  },
  {
   "name": "Cibc Theatre",
   "address": "18 W Monroe St",
   "zip": "60603",
   "lat": 41.880848,
   "lng": -87.628436
  },
  {
   "name": "Circle K",
   "address": "137-139 S Clinton St",
   "zip": "60661",
   "lat": 41.879418,
   "lng": -87.640966,
   "category": "restaurant"
  },
  {
   "name": "Circle K",
   "address": "190 W Madison St 1",
   "zip": "60602",
   "lat": 41.882058,
   "lng": -87.633533,
   "category": "liquor"
  },
  {
   "name": "Circle K",
   "address": "2 N Wabash Ave",
   "zip": "60602",
   "lat": 41.882135,
   "lng": -87.626363,
   "category": "restaurant"
  },
  {
   "name": "Circle K #6765",
   "address": "1160 W Van Buren St 1",
   "zip": "60607",
   "lat": 41.87663,
   "lng": -87.656975,
   "category": "restaurant"
  },
  {
   "name": "City Social",
   "address": "120 N La Salle St 1",
   "zip": "60602",
   "lat": 41.883761,
   "lng": -87.632569,
   "category": "restaurant"
  },
  {
   "name": "Cjg Consulting, Llc",
   "address": "60 E Monroe St 29Th 2903",
   "zip": "60603",
   "lat": 41.880911,
   "lng": -87.625509
  },
  {
   "name": "Ck'S Cards",
   "address": "11 S Green St  1105",
   "zip": "60607",
   "lat": 41.881394,
   "lng": -87.648374
  },
  {
   "name": "Clarity Partners",
   "address": "20 N Clark St 36Th 3600",
   "zip": "60602",
   "lat": 41.882434,
   "lng": -87.631037
  },
  {
   "name": "Clarius Partners, Llc",
   "address": "200 W Madison St 16Th 1625",
   "zip": "60606",
   "lat": 41.882055,
   "lng": -87.6339
  },
  {
   "name": "Clark Construction Group Chicago, LLC",
   "address": "216 S Jefferson St 5 502",
   "zip": "60661",
   "lat": 41.878733,
   "lng": -87.642709
  },
  {
   "name": "Clark Construction Group Llc",
   "address": "216 S Jefferson St  502",
   "zip": "60661",
   "lat": 41.878733,
   "lng": -87.642709
  },
  {
   "name": "Clark Street Cleaners",
   "address": "900 S Clark St 1St",
   "zip": "60605",
   "lat": 41.870473,
   "lng": -87.630706,
   "category": "cleaners"
  },
  {
   "name": "Classical Music Chicago",
   "address": "200 W Madison St",
   "zip": "60606",
   "lat": 41.882055,
   "lng": -87.6339
  },
  {
   "name": "Clean & Green Ashland, LLC",
   "address": "110 S Ashland Ave 1St Floor",
   "zip": "60607",
   "lat": 41.879804,
   "lng": -87.666897
  },
  {
   "name": "Clean As A Whistle Iii, Inc.",
   "address": "836 W Adams St 1St",
   "zip": "60607",
   "lat": 41.879302,
   "lng": -87.648756
  },
  {
   "name": "Clean Your Dirty Face West Loop",
   "address": "849 W Monroe St 1St 1B",
   "zip": "60607",
   "lat": 41.880347,
   "lng": -87.649274
  },
  {
   "name": "Cleanslate Chicago",
   "address": "237 S Desplaines St 1, 2 And 3",
   "zip": "60661",
   "lat": 41.878149,
   "lng": -87.643862
  },
  {
   "name": "Clear Channel Outdoor",
   "address": "200 S Michigan Ave  1305",
   "zip": "60604",
   "lat": 41.879489,
   "lng": -87.624498
  },
  {
   "name": "Clemons & Company Holdings, Llc",
   "address": "100 S State St 4 #3004",
   "zip": "60603",
   "lat": 41.880715,
   "lng": -87.627876
  },
  {
   "name": "Client Dining Room",
   "address": "10 S Dearborn St 57Th",
   "zip": "60603",
   "lat": 41.881807,
   "lng": -87.629543,
   "category": "restaurant"
  },
  {
   "name": "Cloud9 Windy City Llc",
   "address": "1125 W Van Buren St 15Th 1512",
   "zip": "60607",
   "lat": 41.876438,
   "lng": -87.655449
  },
  {
   "name": "Cloud9 Windy City Llc",
   "address": "1125 W Van Buren St 9Th 912",
   "zip": "60607",
   "lat": 41.876438,
   "lng": -87.655449
  },
  {
   "name": "Cloud9 Windy City Llc",
   "address": "1044 W Van Buren St 13Th 1306",
   "zip": "60607",
   "lat": 41.876684,
   "lng": -87.653701
  },
  {
   "name": "Cloud9 Windy City LLC",
   "address": "1125 W Van Buren St 19 1911",
   "zip": "60607",
   "lat": 41.876438,
   "lng": -87.655449
  },
  {
   "name": "Cloud9 Windy City Llc",
   "address": "1044 W Van Buren St 10Th 1006",
   "zip": "60607",
   "lat": 41.876684,
   "lng": -87.653701
  },
  {
   "name": "Cloud9 Windy City Llc",
   "address": "1044 W Van Buren St 14Th 1406",
   "zip": "60607",
   "lat": 41.876684,
   "lng": -87.653701
  },
  {
   "name": "Cloud9 Windy City Llc",
   "address": "1125 W Van Buren St 13Th 1312",
   "zip": "60607",
   "lat": 41.876438,
   "lng": -87.655449
  },
  {
   "name": "Cloud9 Windy City Llc",
   "address": "1125 W Van Buren St 4Th 411",
   "zip": "60607",
   "lat": 41.876438,
   "lng": -87.655449
  },
  {
   "name": "Cloud9 Windy City Llc",
   "address": "1125 W Van Buren St 18Th 1812",
   "zip": "60607",
   "lat": 41.876438,
   "lng": -87.655449
  },
  {
   "name": "Club Pilates South Loop",
   "address": "710 S Clark St 1St",
   "zip": "60605",
   "lat": 41.873133,
   "lng": -87.630783,
   "category": "fitness"
  },
  {
   "name": "Club Pilates West Loop",
   "address": "907 W Madison St",
   "zip": "60607",
   "lat": 41.881622,
   "lng": -87.650015,
   "category": "fitness"
  },
  {
   "name": "Club Quarters Central Loop",
   "address": "105-111 W Adams St Ll-10",
   "zip": "60603",
   "lat": 41.879303,
   "lng": -87.631002
  },
  {
   "name": "Code Platoon",
   "address": "1 S Dearborn St 20Th",
   "zip": "60603",
   "lat": 41.881937,
   "lng": -87.629253
  },
  {
   "name": "Cogent Communications, Inc.",
   "address": "427 S La Salle St  275",
   "zip": "60605",
   "lat": 41.876216,
   "lng": -87.631602
  },
  {
   "name": "Cognitive Capital, LLC",
   "address": "141 W Jackson Blvd 16 1620",
   "zip": "60604",
   "lat": 41.878026,
   "lng": -87.632062
  },
  {
   "name": "College Rising Company",
   "address": "1016 W Jackson Blvd 5Th",
   "zip": "60607",
   "lat": 41.877968,
   "lng": -87.652643
  },
  {
   "name": "Collier Jewelry & Watch Sales",
   "address": "17 N Wabash Ave 5Th 530",
   "zip": "60602",
   "lat": 41.882481,
   "lng": -87.626077
  },
  {
   "name": "Comcast of Florida/Georgia/Illinois/Michigan, LLC",
   "address": "30 S Halsted St",
   "zip": "60661",
   "lat": 41.880859,
   "lng": -87.647479
  },
  {
   "name": "Common Spirit Health",
   "address": "444 W Lake St 25-26",
   "zip": "60606",
   "lat": 41.88583,
   "lng": -87.639806
  },
  {
   "name": "Community and Economic Development Association of Cook County, Inc.",
   "address": "567 W Lake St 12 1200",
   "zip": "60661",
   "lat": 41.885594,
   "lng": -87.642526
  },
  {
   "name": "Community Desk Chicago",
   "address": "25 E Washington St 17 1725",
   "zip": "60602",
   "lat": 41.883109,
   "lng": -87.626976
  },
  {
   "name": "Computer Aid Inc",
   "address": "10 S La Salle St  Suite 201",
   "zip": "60603",
   "lat": 41.881675,
   "lng": -87.632504
  },
  {
   "name": "Computer Voice Systems Inc",
   "address": "566 W Adams St  700",
   "zip": "60661",
   "lat": 41.879384,
   "lng": -87.642328
  },
  {
   "name": "Comtek International, Inc.",
   "address": "1 S Dearborn St 20",
   "zip": "60603",
   "lat": 41.881937,
   "lng": -87.629253
  },
  {
   "name": "Conduent Business Services, Llc",
   "address": "141 W Jackson Blvd",
   "zip": "60604",
   "lat": 41.878026,
   "lng": -87.632062
  },
  {
   "name": "Cone, Llc",
   "address": "1051 W Madison St 1 1",
   "zip": "60607",
   "lat": 41.881567,
   "lng": -87.654018,
   "category": "restaurant"
  },
  {
   "name": "ConnectED Consulting Services LLC",
   "address": "708 S Racine Ave 1St Floor B",
   "zip": "60607",
   "lat": 41.872931,
   "lng": -87.656949
  },
  {
   "name": "ConnectHR LLC",
   "address": "332 S Michigan Ave 1St 100",
   "zip": "60604",
   "lat": 41.87748,
   "lng": -87.624447
  },
  {
   "name": "Construction Service Associates",
   "address": "166 W Washington St  750",
   "zip": "60602",
   "lat": 41.883317,
   "lng": -87.632917
  },
  {
   "name": "Control Risks Group, Llc",
   "address": "20 N Clark St 34Th 3409",
   "zip": "60602",
   "lat": 41.882434,
   "lng": -87.631037
  },
  {
   "name": "Converge Medical Technology LLC",
   "address": "141 W Jackson Blvd  300A",
   "zip": "60604",
   "lat": 41.878026,
   "lng": -87.632062,
   "category": "health"
  },
  {
   "name": "Convexity Properties, LLC",
   "address": "540 W Madison St 2500",
   "zip": "60661",
   "lat": 41.881966,
   "lng": -87.641276
  },
  {
   "name": "Cooler Logistics Llc",
   "address": "820 W Jackson Blvd 4 490",
   "zip": "60607",
   "lat": 41.878043,
   "lng": -87.64818
  },
  {
   "name": "Cooperativa Ceramica D'Imola North America Inc",
   "address": "104 S Michigan Ave 7 700",
   "zip": "60603",
   "lat": 41.880679,
   "lng": -87.624491
  },
  {
   "name": "Copper Club",
   "address": "70 W Madison St  55",
   "zip": "60602",
   "lat": 41.882093,
   "lng": -87.630392,
   "category": "restaurant"
  },
  {
   "name": "Core Erectors IL LLC",
   "address": "404  South Wells Street  5Th",
   "zip": "60607",
   "lat": 41.876694,
   "lng": -87.633837
  },
  {
   "name": "Core Twelve",
   "address": "600 W Van Buren St 10Th 1010",
   "zip": "60607",
   "lat": 41.876842,
   "lng": -87.642573
  },
  {
   "name": "Corner Bakery Cafe 167",
   "address": "188 W Washington St",
   "zip": "60602",
   "lat": 41.883318,
   "lng": -87.633515,
   "category": "cafe"
  },
  {
   "name": "Corner Bakery Cafe 74",
   "address": "140 S Dearborn St",
   "zip": "60603",
   "lat": 41.879676,
   "lng": -87.629502,
   "category": "cafe"
  },
  {
   "name": "Cornerstone Research, Inc.",
   "address": "181 W Madison St 43 4300,4500",
   "zip": "60602",
   "lat": 41.881841,
   "lng": -87.633255
  },
  {
   "name": "Corporate Suites Network",
   "address": "555 W Madison St",
   "zip": "60661",
   "lat": 41.881738,
   "lng": -87.641808,
   "category": "hotel"
  },
  {
   "name": "Cpa Endowment Fund Of Illinois",
   "address": "550 W Jackson Blvd  900",
   "zip": "60661",
   "lat": 41.878132,
   "lng": -87.641585
  },
  {
   "name": "CPR Cell Phone Repair",
   "address": "918 W Madison St 1St",
   "zip": "60607",
   "lat": 41.88183,
   "lng": -87.65055
  },
  {
   "name": "Cpu Rx",
   "address": "1016 W Jackson Blvd  110",
   "zip": "60607",
   "lat": 41.877968,
   "lng": -87.652643
  },
  {
   "name": "Crave Cookies & Soda",
   "address": "28 N Michigan Ave 1St Floor",
   "zip": "60602",
   "lat": 41.882713,
   "lng": -87.624535,
   "category": "restaurant"
  },
  {
   "name": "Crave Kabob, Inc.",
   "address": "1521-1523 W Madison St 1St & Mezz",
   "zip": "60607",
   "lat": 41.881358,
   "lng": -87.665333,
   "category": "restaurant"
  },
  {
   "name": "Cre 8, Llc",
   "address": "321 S Sangamon St  801",
   "zip": "60607",
   "lat": 41.877227,
   "lng": -87.650576
  },
  {
   "name": "Creative & Response Res",
   "address": "150 N Michigan Ave 34",
   "zip": "60601",
   "lat": 41.884531,
   "lng": -87.624602
  },
  {
   "name": "Credico (Usa) Llc",
   "address": "550 W Van Buren St  1100",
   "zip": "60607",
   "lat": 41.876855,
   "lng": -87.641544
  },
  {
   "name": "Cresset Capital",
   "address": "444 W Lake St  4700",
   "zip": "60606",
   "lat": 41.88583,
   "lng": -87.639806
  },
  {
   "name": "Crisjon Fine Jewelry, Inc.",
   "address": "5 S Wabash Ave 13Th 1312",
   "zip": "60603",
   "lat": 41.881922,
   "lng": -87.626063
  },
  {
   "name": "Cross Tech Communications, Inc",
   "address": "111 N Jefferson St",
   "zip": "60661",
   "lat": 41.883553,
   "lng": -87.642562
  },
  {
   "name": "CrossTown Fitness",
   "address": "1031 W Madison St 1",
   "zip": "60607",
   "lat": 41.88157,
   "lng": -87.653323,
   "category": "fitness"
  },
  {
   "name": "Crown Imports, Constellation Brands, Tocayo Brewing Company",
   "address": "131 S Dearborn St 12, 21-24 1200",
   "zip": "60603",
   "lat": 41.879885,
   "lng": -87.629212,
   "category": "bar"
  },
  {
   "name": "Crowne Plaza Chicago West Loop/Rye Deli + Drink",
   "address": "25 S Halsted St",
   "zip": "60661",
   "lat": 41.881022,
   "lng": -87.647189,
   "category": "restaurant"
  },
  {
   "name": "Crystal Equation Corporation",
   "address": "200 W Madison St 9Th Suite 970",
   "zip": "60606",
   "lat": 41.882055,
   "lng": -87.6339
  },
  {
   "name": "Crystal Gems, Inc",
   "address": "5 S Wabash Ave  2104",
   "zip": "60603",
   "lat": 41.881922,
   "lng": -87.626063
  },
  {
   "name": "CS Books & Records",
   "address": "125 S Clark St  100 - 17",
   "zip": "60603",
   "lat": 41.879989,
   "lng": -87.630689
  },
  {
   "name": "CSA Education",
   "address": "8 S Michigan Ave 32",
   "zip": "60603",
   "lat": 41.8819,
   "lng": -87.624507
  },
  {
   "name": "Cullen Construction Management",
   "address": "566 W Adams St  440",
   "zip": "60661",
   "lat": 41.879384,
   "lng": -87.642328
  },
  {
   "name": "Cumberland",
   "address": "540 W Madison St  2500",
   "zip": "60661",
   "lat": 41.881966,
   "lng": -87.641276
  },
  {
   "name": "Cumming Management Group, Inc.",
   "address": "1 N La Salle St  1910",
   "zip": "60602",
   "lat": 41.88199,
   "lng": -87.632213
  },
  {
   "name": "Curry On Fire",
   "address": "1030 W Taylor St 1",
   "zip": "60607",
   "lat": 41.869597,
   "lng": -87.652349,
   "category": "restaurant"
  },
  {
   "name": "Custom Life Closets Llc",
   "address": "55 W Monroe St  Frnt 110",
   "zip": "60603",
   "lat": 41.880599,
   "lng": -87.629907
  },
  {
   "name": "Cvs Pharmacy # 17009",
   "address": "1154 S Clark St 1St",
   "zip": "60605",
   "lat": 41.867571,
   "lng": -87.630586,
   "category": "health"
  },
  {
   "name": "Cvs Pharmacy # 17634",
   "address": "1101 W Jackson Blvd 1St",
   "zip": "60607",
   "lat": 41.87772,
   "lng": -87.65469,
   "category": "health"
  },
  {
   "name": "Cvs Pharmacy # 17643",
   "address": "1 S State St 1St",
   "zip": "60603",
   "lat": 41.881995,
   "lng": -87.627647,
   "category": "health"
  },
  {
   "name": "Cvs/Pharmacy #10942",
   "address": "310 S Michigan Ave 1",
   "zip": "60604",
   "lat": 41.877988,
   "lng": -87.62446,
   "category": "health"
  },
  {
   "name": "D'S Custom Jewelry Llc",
   "address": "5 S Wabash Ave 2Nd 215",
   "zip": "60603",
   "lat": 41.881922,
   "lng": -87.626063
  },
  {
   "name": "Da Local Boy",
   "address": "335 S Franklin St 1",
   "zip": "60606",
   "lat": 41.877259,
   "lng": -87.635041,
   "category": "restaurant"
  },
  {
   "name": "Daily Grind",
   "address": "122 S Michigan Ave 2",
   "zip": "60603",
   "lat": 41.880263,
   "lng": -87.624505,
   "category": "restaurant"
  },
  {
   "name": "Dana Bender Wellness, LLC",
   "address": "611 S Wells St  2607",
   "zip": "60607",
   "lat": 41.874243,
   "lng": -87.633477,
   "category": "health"
  },
  {
   "name": "Daniel Levy Jewelry",
   "address": "25 W Randolph St 21 2104",
   "zip": "60601",
   "lat": 41.884376,
   "lng": -87.628866
  },
  {
   "name": "Daniel Management Group, Inc.",
   "address": "112 S Sangamon St  105",
   "zip": "60607",
   "lat": 41.880003,
   "lng": -87.650957
  },
  {
   "name": "Daniels Health",
   "address": "111 W Jackson Blvd 19 1900",
   "zip": "60604",
   "lat": 41.878034,
   "lng": -87.631171
  },
  {
   "name": "Danke Market",
   "address": "125 S Clark St 1 12",
   "zip": "60603",
   "lat": 41.879989,
   "lng": -87.630689,
   "category": "restaurant"
  },
  {
   "name": "DAS & Associates, INC.",
   "address": "311 S Wacker Dr  400",
   "zip": "60606",
   "lat": 41.877792,
   "lng": -87.636524
  },
  {
   "name": "Dashing Dog",
   "address": "612 W Lake St 1",
   "zip": "60661",
   "lat": 41.885814,
   "lng": -87.643376
  },
  {
   "name": "Data-Tel Communication, Inc",
   "address": "118 N Clinton St",
   "zip": "60661",
   "lat": 41.883804,
   "lng": -87.641401
  },
  {
   "name": "David Robert Ruge",
   "address": "166 W Washington St 7Th 750",
   "zip": "60602",
   "lat": 41.883317,
   "lng": -87.632917
  },
  {
   "name": "David Weise",
   "address": "111 W Washington St  450",
   "zip": "60602",
   "lat": 41.883101,
   "lng": -87.631263
  },
  {
   "name": "Daylight L3C",
   "address": "231 S La Salle St 21 2100",
   "zip": "60604",
   "lat": 41.878543,
   "lng": -87.632121
  },
  {
   "name": "dba Ever.Ag",
   "address": "135 S La Salle St 34 3400",
   "zip": "60603",
   "lat": 41.880016,
   "lng": -87.632162
  },
  {
   "name": "Dead Roses",
   "address": "1001 W Madison St 6Th 605",
   "zip": "60607",
   "lat": 41.881589,
   "lng": -87.652086
  },
  {
   "name": "Dearborn Sourcing LLC",
   "address": "141 W Jackson Blvd  3820",
   "zip": "60604",
   "lat": 41.878026,
   "lng": -87.632062
  },
  {
   "name": "Decision Spot LLC",
   "address": "24 E Washington St  875",
   "zip": "60602",
   "lat": 41.883328,
   "lng": -87.627059
  },
  {
   "name": "Deeva Nail Boutique",
   "address": "912 W Madison St",
   "zip": "60607",
   "lat": 41.881836,
   "lng": -87.650287,
   "category": "salon"
  },
  {
   "name": "Defencen Security",
   "address": "100 S State St  Ste 404",
   "zip": "60603",
   "lat": 41.880715,
   "lng": -87.627876
  },
  {
   "name": "Dejurs Madison Corp / Dba Dunkin' Donuts",
   "address": "1519 W Madison St",
   "zip": "60607",
   "lat": 41.881359,
   "lng": -87.665249,
   "category": "restaurant"
  },
  {
   "name": "Deleccatt Roses",
   "address": "19 N Green St 1",
   "zip": "60607",
   "lat": 41.882384,
   "lng": -87.648399
  },
  {
   "name": "Delightful Dawhit Health Agency Inc.",
   "address": "19 N Green St",
   "zip": "60607",
   "lat": 41.882384,
   "lng": -87.648399
  },
  {
   "name": "Deltalabs",
   "address": "765 W Adams St 20 2009",
   "zip": "60661",
   "lat": 41.879117,
   "lng": -87.646607
  },
  {
   "name": "Dept of Rehabilitation Svc/VFP",
   "address": "536 S Clark St",
   "zip": "60605",
   "lat": 41.874945,
   "lng": -87.630832,
   "category": "restaurant"
  },
  {
   "name": "Dept Of Rehabilitation Svc/Vfp",
   "address": "230 S Dearborn St  Facil",
   "zip": "60604",
   "lat": 41.878684,
   "lng": -87.629473,
   "category": "restaurant"
  },
  {
   "name": "Design Museum Of Chicago",
   "address": "72 E Randolph St 1",
   "zip": "60601",
   "lat": 41.884608,
   "lng": -87.625245
  },
  {
   "name": "Destify",
   "address": "29 E Madison St  400",
   "zip": "60602",
   "lat": 41.881965,
   "lng": -87.626793
  },
  {
   "name": "Development Solutions, Inc.",
   "address": "121 N Jefferson St 1St",
   "zip": "60661",
   "lat": 41.883868,
   "lng": -87.642572
  },
  {
   "name": "Development Specialists Inc",
   "address": "10 S La Salle St 33 3300",
   "zip": "60603",
   "lat": 41.881675,
   "lng": -87.632504
  },
  {
   "name": "Dialtone Cafe",
   "address": "550 W Van Buren St 1 100",
   "zip": "60607",
   "lat": 41.876855,
   "lng": -87.641544,
   "category": "cafe"
  },
  {
   "name": "Diamond & Gold Creations",
   "address": "21 N Wabash Ave 1St",
   "zip": "60602",
   "lat": 41.882567,
   "lng": -87.626079
  },
  {
   "name": "Diamonds Inc.",
   "address": "68 E Madison St 1",
   "zip": "60602",
   "lat": 41.882205,
   "lng": -87.625384
  },
  {
   "name": "Diamonds Of South Africa",
   "address": "5 S Wabash Ave  1621",
   "zip": "60603",
   "lat": 41.881922,
   "lng": -87.626063
  },
  {
   "name": "Diamonds On Wabash, Inc.",
   "address": "15 S Wabash Ave",
   "zip": "60603",
   "lat": 41.88168,
   "lng": -87.626054
  },
  {
   "name": "Diaview Inc.",
   "address": "29 E Madison St 15Th 1508A",
   "zip": "60602",
   "lat": 41.881965,
   "lng": -87.626793
  },
  {
   "name": "Dimend Scaasi",
   "address": "5 S Wabash Ave  1734",
   "zip": "60603",
   "lat": 41.881922,
   "lng": -87.626063
  },
  {
   "name": "Dirksen Us Courthouse",
   "address": "219 S Dearborn St",
   "zip": "60604",
   "lat": 41.878967,
   "lng": -87.629193,
   "category": "restaurant"
  },
  {
   "name": "Dival Creations Company",
   "address": "29 E Madison St  1104",
   "zip": "60602",
   "lat": 41.881965,
   "lng": -87.626793
  },
  {
   "name": "Divine Maids Chicago",
   "address": "1243 S Wabash Ave 4 402",
   "zip": "60605",
   "lat": 41.866261,
   "lng": -87.625657
  },
  {
   "name": "Dl3 Realty Advisors, Llc",
   "address": "77 W Washington St 4Th 405",
   "zip": "60602",
   "lat": 41.883101,
   "lng": -87.630331
  },
  {
   "name": "Dnr Diamonds Inc",
   "address": "67 E Madison St  1920",
   "zip": "60603",
   "lat": 41.881985,
   "lng": -87.625444
  },
  {
   "name": "Doart",
   "address": "5 S Wabash Ave 12 1218",
   "zip": "60603",
   "lat": 41.881922,
   "lng": -87.626063
  },
  {
   "name": "Dolan McEniryCapital Management, L.L.C.",
   "address": "120 N La Salle St  1510",
   "zip": "60602",
   "lat": 41.883761,
   "lng": -87.632569
  },
  {
   "name": "Dollop",
   "address": "150 N Michigan Ave 1St",
   "zip": "60601",
   "lat": 41.884531,
   "lng": -87.624602,
   "category": "restaurant"
  },
  {
   "name": "Dollop Coffee",
   "address": "225 W Washington St 1St 110",
   "zip": "60606",
   "lat": 41.883099,
   "lng": -87.6346,
   "category": "cafe"
  },
  {
   "name": "Dollop Coffee Co",
   "address": "55 W Monroe St 1St",
   "zip": "60603",
   "lat": 41.880599,
   "lng": -87.629907,
   "category": "cafe"
  },
  {
   "name": "Dollop Coffee Co.",
   "address": "300 S Wacker Dr 1 Lobby",
   "zip": "60606",
   "lat": 41.878011,
   "lng": -87.637059,
   "category": "cafe"
  },
  {
   "name": "Dollop Diner Cafe & Bar",
   "address": "1210 S Indiana Ave 1St",
   "zip": "60605",
   "lat": 41.867137,
   "lng": -87.622694,
   "category": "cafe"
  },
  {
   "name": "Dominion Voting Systems, Inc.",
   "address": "69 W Washington St 6 600",
   "zip": "60602",
   "lat": 41.8831,
   "lng": -87.630147
  },
  {
   "name": "Dominos",
   "address": "901 W Madison St",
   "zip": "60607",
   "lat": 41.881627,
   "lng": -87.649752,
   "category": "restaurant"
  },
  {
   "name": "Donna Jewelry  Co.",
   "address": "111 N Wabash Ave 14 1412",
   "zip": "60602",
   "lat": 41.883526,
   "lng": -87.626082
  },
  {
   "name": "Dos Bros Fresh Mexican Grill",
   "address": "26 S Clinton St",
   "zip": "60661",
   "lat": 41.881037,
   "lng": -87.641313,
   "category": "restaurant"
  },
  {
   "name": "Dos Toros Taqueria",
   "address": "1 N Dearborn St Mezz And 1",
   "zip": "60602",
   "lat": 41.88203,
   "lng": -87.629256,
   "category": "restaurant"
  },
  {
   "name": "Downtown Mini Mart",
   "address": "173 W Van Buren St 1St",
   "zip": "60605",
   "lat": 41.876751,
   "lng": -87.633172,
   "category": "grocery"
  },
  {
   "name": "Downtown Smoke Shop",
   "address": "220 W Washington St 1St",
   "zip": "60606",
   "lat": 41.883319,
   "lng": -87.634491
  },
  {
   "name": "Dozzy'S Grill",
   "address": "933 W Van Buren St  520",
   "zip": "60607",
   "lat": 41.876507,
   "lng": -87.65084
  },
  {
   "name": "Dream Jewelers Inc.",
   "address": "9 S Wabash Ave  Storefront",
   "zip": "60603",
   "lat": 41.881825,
   "lng": -87.62606
  },
  {
   "name": "Dream Management",
   "address": "417 S Dearborn St Floors 2-11",
   "zip": "60605",
   "lat": 41.87647,
   "lng": -87.629106
  },
  {
   "name": "Dresner Corporate Services",
   "address": "10 S La Salle St  2170",
   "zip": "60603",
   "lat": 41.881675,
   "lng": -87.632504
  },
  {
   "name": "Dresner Investment Services",
   "address": "10 S La Salle St  2170",
   "zip": "60603",
   "lat": 41.881675,
   "lng": -87.632504
  },
  {
   "name": "Drw Holdings Llc",
   "address": "540 W Madison St  2500",
   "zip": "60661",
   "lat": 41.881966,
   "lng": -87.641276
  },
  {
   "name": "DS Events Chicago",
   "address": "27 E Monroe St 4Th 400",
   "zip": "60603",
   "lat": 41.880671,
   "lng": -87.626738
  },
  {
   "name": "Duff& Phelps, Llc",
   "address": "311 S Wacker Dr  4200",
   "zip": "60606",
   "lat": 41.877792,
   "lng": -87.636524
  },
  {
   "name": "Dugan'S",
   "address": "128 S Halsted St 1St",
   "zip": "60661",
   "lat": 41.87958,
   "lng": -87.64744,
   "category": "bar"
  },
  {
   "name": "Dunkin Donuts",
   "address": "626 S Clark St 1 1",
   "zip": "60605",
   "lat": 41.873997,
   "lng": -87.630806,
   "category": "restaurant"
  },
  {
   "name": "Dunkin Donuts",
   "address": "128 N State St",
   "zip": "60602",
   "lat": 41.883883,
   "lng": -87.628039,
   "category": "restaurant"
  },
  {
   "name": "Dunkin Donuts",
   "address": "6 N Wabash Ave 1St",
   "zip": "60602",
   "lat": 41.882221,
   "lng": -87.626365,
   "category": "restaurant"
  },
  {
   "name": "Dunkin Donuts",
   "address": "547 W Jackson Blvd 1St",
   "zip": "60661",
   "lat": 41.877914,
   "lng": -87.641405,
   "category": "restaurant"
  },
  {
   "name": "Dunkin Donuts",
   "address": "201 W Madison St",
   "zip": "60606",
   "lat": 41.881835,
   "lng": -87.633897,
   "category": "restaurant"
  },
  {
   "name": "Dunkin Donuts / Baskin Robins",
   "address": "555 W Lake St",
   "zip": "60661",
   "lat": 41.885592,
   "lng": -87.642,
   "category": "restaurant"
  },
  {
   "name": "Dunkin Donuts Baskin Robbins",
   "address": "229 W Jackson Blvd",
   "zip": "60606",
   "lat": 41.878,
   "lng": -87.634575,
   "category": "restaurant"
  },
  {
   "name": "Dunkin' Donuts",
   "address": "400 S Financial Pl 1St 3A",
   "zip": "60605",
   "lat": 41.876797,
   "lng": -87.633256,
   "category": "restaurant"
  },
  {
   "name": "Dunkin' Donuts",
   "address": "105 W Madison St 1St 109A",
   "zip": "60602",
   "lat": 41.881866,
   "lng": -87.631066,
   "category": "restaurant"
  },
  {
   "name": "Dynamic Rebalance Sports & Lymphedema Therapy Inc.",
   "address": "30 N Michigan Ave 5Th 528",
   "zip": "60602",
   "lat": 41.882755,
   "lng": -87.624535,
   "category": "health"
  },
  {
   "name": "E.B.E. Enough But Evolving",
   "address": "917 W Washington Blvd  Pmb 122",
   "zip": "60607",
   "lat": 41.882981,
   "lng": -87.65049
  },
  {
   "name": "E.M. Trading, Inc.",
   "address": "29 E Madison St 13 1308",
   "zip": "60602",
   "lat": 41.881965,
   "lng": -87.626793
  },
  {
   "name": "Echelon Consulting, L.L.C.",
   "address": "10 S La Salle St 23 2320",
   "zip": "60603",
   "lat": 41.881675,
   "lng": -87.632504
  },
  {
   "name": "Echoice Innovations, Inc.",
   "address": "330 N Jefferson St 23Rd 2302",
   "zip": "60661",
   "lat": 41.887764,
   "lng": -87.642977
  },
  {
   "name": "ecoATM",
   "address": "1224 S Wabash Ave Inside Jewel-Osco334",
   "zip": "60605",
   "lat": 41.866724,
   "lng": -87.625961
  },
  {
   "name": "Ecoatm",
   "address": "40 S Halsted St Inside Marianos0508",
   "zip": "60661",
   "lat": 41.880554,
   "lng": -87.64747
  },
  {
   "name": "ecoATM",
   "address": "2 W Madison St Inside Checkchgrs16",
   "zip": "60602",
   "lat": 41.882143,
   "lng": -87.627904
  },
  {
   "name": "Edmund D Schelzle & Sons",
   "address": "29 E Madison St  1214",
   "zip": "60602",
   "lat": 41.881965,
   "lng": -87.626793
  },
  {
   "name": "EDP Renewables North America LLC",
   "address": "209 W Jackson Blvd  701A",
   "zip": "60606",
   "lat": 41.878006,
   "lng": -87.634022
  },
  {
   "name": "Edward Jones",
   "address": "306 S Jefferson St",
   "zip": "60661",
   "lat": 41.877755,
   "lng": -87.642675
  },
  {
   "name": "Efk Moen, Llc",
   "address": "311 S Wacker Dr 4 460",
   "zip": "60606",
   "lat": 41.877792,
   "lng": -87.636524
  },
  {
   "name": "Eh Designs & Jewelry",
   "address": "5 S Wabash Ave 2Nd 201",
   "zip": "60603",
   "lat": 41.881922,
   "lng": -87.626063
  },
  {
   "name": "Einstein Bros Bagels #3463",
   "address": "30 N La Salle St 1St 100E",
   "zip": "60602",
   "lat": 41.882695,
   "lng": -87.632531,
   "category": "restaurant"
  },
  {
   "name": "El Greco'S Burritos",
   "address": "24 E Adams St 1",
   "zip": "60603",
   "lat": 41.879611,
   "lng": -87.626856,
   "category": "restaurant"
  },
  {
   "name": "Electriqsoul Hideout Studios",
   "address": "216 S Jefferson St 1St 100",
   "zip": "60661",
   "lat": 41.878733,
   "lng": -87.642709
  },
  {
   "name": "Electronic Knowledge Interchange Company",
   "address": "33 W Monroe St  1050",
   "zip": "60603",
   "lat": 41.880616,
   "lng": -87.629049
  },
  {
   "name": "Elephant & Castle Pub & Restaurant",
   "address": "111 W Adams St",
   "zip": "60603",
   "lat": 41.879301,
   "lng": -87.631168,
   "category": "bar"
  },
  {
   "name": "Elephant & Castle Pub & Restaurant",
   "address": "185 N Wabash Ave Bsmt & 1",
   "zip": "60601",
   "lat": 41.885432,
   "lng": -87.626119,
   "category": "bar"
  },
  {
   "name": "Elevate",
   "address": "131 S Dearborn St 12",
   "zip": "60603",
   "lat": 41.879885,
   "lng": -87.629212
  },
  {
   "name": "Elite Business Solutions, LLC",
   "address": "60 E Monroe St  2701",
   "zip": "60603",
   "lat": 41.880911,
   "lng": -87.625509
  },
  {
   "name": "Elps Charter Llc",
   "address": "1528 W Adams St  4A",
   "zip": "60607",
   "lat": 41.879024,
   "lng": -87.665595
  },
  {
   "name": "Eml, Llc",
   "address": "600 W Madison St First Ecc",
   "zip": "60661",
   "lat": 41.881947,
   "lng": -87.642736
  },
  {
   "name": "Employment And Employer Services",
   "address": "223 W Jackson Blvd 10Th 1005",
   "zip": "60606",
   "lat": 41.878002,
   "lng": -87.634409
  },
  {
   "name": "Enova International, Inc.",
   "address": "175 W Jackson Blvd 5Th & 6Th 600",
   "zip": "60604",
   "lat": 41.878014,
   "lng": -87.633189
  },
  {
   "name": "Enterprise Rent-A-Car",
   "address": "318 S Morgan St  1",
   "zip": "60607",
   "lat": 41.877263,
   "lng": -87.652039
  },
  {
   "name": "Envision Unlimited",
   "address": "8 S Michigan Ave 17 1700",
   "zip": "60603",
   "lat": 41.8819,
   "lng": -87.624507
  },
  {
   "name": "Epic Parking",
   "address": "12 S Michigan Ave",
   "zip": "60603",
   "lat": 41.881803,
   "lng": -87.624504
  },
  {
   "name": "Epilepsy Foundation",
   "address": "17 N State St 6 650",
   "zip": "60602",
   "lat": 41.882457,
   "lng": -87.6277
  },
  {
   "name": "Epiphany Center For The Arts",
   "address": "201-211 S Ashland Ave 1",
   "zip": "60607",
   "lat": 41.878836,
   "lng": -87.666603,
   "category": "restaurant"
  },
  {
   "name": "Epstein Construction Inc",
   "address": "600 W Fulton St 7Th",
   "zip": "60661",
   "lat": 41.886921,
   "lng": -87.642879
  },
  {
   "name": "Era",
   "address": "416 S Clark St 1",
   "zip": "60605",
   "lat": 41.876512,
   "lng": -87.630886,
   "category": "bar"
  },
  {
   "name": "EREG Development, LLC",
   "address": "566 W Lake St 4 400",
   "zip": "60661",
   "lat": 41.885814,
   "lng": -87.642524
  },
  {
   "name": "Erie Neighborhood House",
   "address": "1634 W Van Buren St 1St",
   "zip": "60612",
   "lat": 41.876441,
   "lng": -87.668158
  },
  {
   "name": "Ernest R. Sawyer Enterprises, Inc.",
   "address": "100 N La Salle St  1515",
   "zip": "60602",
   "lat": 41.883237,
   "lng": -87.632556
  },
  {
   "name": "Esquire Deposition Solutions, Llc",
   "address": "20 N Clark St 5Th 500",
   "zip": "60602",
   "lat": 41.882434,
   "lng": -87.631037
  },
  {
   "name": "Essential Diamonds Inc.",
   "address": "5 S Wabash Ave 13Th 1312",
   "zip": "60603",
   "lat": 41.881922,
   "lng": -87.626063
  },
  {
   "name": "Estee Hanson Coiffures",
   "address": "17 N Wabash Ave 5Th Fl 580",
   "zip": "60602",
   "lat": 41.882481,
   "lng": -87.626077
  },
  {
   "name": "Etc Restaurant",
   "address": "404-406 S Wells St 1",
   "zip": "60607",
   "lat": 41.876694,
   "lng": -87.633837,
   "category": "bar"
  },
  {
   "name": "Ethan Andrew Rodriguez",
   "address": "111 W Washington St 4Th 450",
   "zip": "60602",
   "lat": 41.883101,
   "lng": -87.631263
  },
  {
   "name": "Ethan Lord",
   "address": "5 S Wabash Ave  208",
   "zip": "60603",
   "lat": 41.881922,
   "lng": -87.626063
  },
  {
   "name": "Eurest Dining at Brookfield Properties",
   "address": "24 E Washington St 14",
   "zip": "60602",
   "lat": 41.883328,
   "lng": -87.627059,
   "category": "restaurant"
  },
  {
   "name": "Eurest Dining Services",
   "address": "540 W Madison St 2 202",
   "zip": "60661",
   "lat": 41.881966,
   "lng": -87.641276
  },
  {
   "name": "Eurest Dining Services @ USG",
   "address": "550 W Adams St 14",
   "zip": "60661",
   "lat": 41.879393,
   "lng": -87.641626,
   "category": "restaurant"
  },
  {
   "name": "Euromonitor International Inc",
   "address": "1 N Dearborn St  1700",
   "zip": "60602",
   "lat": 41.88203,
   "lng": -87.629256
  },
  {
   "name": "European Designs & Manufacturing",
   "address": "5 S Wabash Ave  401 A",
   "zip": "60603",
   "lat": 41.881922,
   "lng": -87.626063
  },
  {
   "name": "European Wax Center",
   "address": "949 W Madison St",
   "zip": "60607",
   "lat": 41.881598,
   "lng": -87.651621
  },
  {
   "name": "Ev Creations Inc.",
   "address": "29 E Madison St 11Th 1101",
   "zip": "60602",
   "lat": 41.881965,
   "lng": -87.626793
  },
  {
   "name": "Evento Productions Llc",
   "address": "216 S Jefferson St  303",
   "zip": "60661",
   "lat": 41.878733,
   "lng": -87.642709
  },
  {
   "name": "Events by TMA",
   "address": "444 W Lake St  1700",
   "zip": "60606",
   "lat": 41.88583,
   "lng": -87.639806
  },
  {
   "name": "Evergreen Redevelopment Llc",
   "address": "566 W Lake St 4 400",
   "zip": "60661",
   "lat": 41.885814,
   "lng": -87.642524
  },
  {
   "name": "Ewing Annex Hotel",
   "address": "422-426 S Clark St",
   "zip": "60605",
   "lat": 41.876397,
   "lng": -87.630882,
   "category": "hotel"
  },
  {
   "name": "Exchequer Restaurant",
   "address": "224-226 S Wabash Ave 1 & Mezz",
   "zip": "60604",
   "lat": 41.878904,
   "lng": -87.62625,
   "category": "restaurant"
  },
  {
   "name": "Exelon Business Services Company, Llc",
   "address": "10 S Dearborn St 45 - 55 4900",
   "zip": "60603",
   "lat": 41.881807,
   "lng": -87.629543
  },
  {
   "name": "Extra Space Storage",
   "address": "901-923 W Adams St 1 1",
   "zip": "60607",
   "lat": 41.879068,
   "lng": -87.649673
  },
  {
   "name": "Extra Space Storage (#7013)",
   "address": "310 S Racine Ave",
   "zip": "60607",
   "lat": 41.877431,
   "lng": -87.657158
  },
  {
   "name": "ExxonMobil Advanced Graphite Solutions LLC",
   "address": "550 W Van Buren St 3 300",
   "zip": "60607",
   "lat": 41.876855,
   "lng": -87.641544
  },
  {
   "name": "Eyebrow Tharding House",
   "address": "940 W Madison St 1St",
   "zip": "60607",
   "lat": 41.881823,
   "lng": -87.651279
  },
  {
   "name": "Eyelashworks",
   "address": "625 W Lake St",
   "zip": "60661",
   "lat": 41.88559,
   "lng": -87.643903,
   "category": "salon"
  },
  {
   "name": "Eyelines",
   "address": "112 W Monroe St 1St",
   "zip": "60603",
   "lat": 41.880801,
   "lng": -87.631261
  },
  {
   "name": "Fairgrounds",
   "address": "12 S Michigan Ave 1",
   "zip": "60603",
   "lat": 41.881803,
   "lng": -87.624504,
   "category": "restaurant"
  },
  {
   "name": "Fast Enterprises, LLC",
   "address": "115 S La Salle St 5",
   "zip": "60603",
   "lat": 41.880206,
   "lng": -87.632168
  },
  {
   "name": "Fatz & Co",
   "address": "19 N Wabash Ave",
   "zip": "60602",
   "lat": 41.882524,
   "lng": -87.626078
  },
  {
   "name": "Fbrk Llc",
   "address": "200 W Madison St 2&3 300",
   "zip": "60605",
   "lat": 41.882055,
   "lng": -87.6339
  },
  {
   "name": "Federated Funeral Directors Of America",
   "address": "125 S Clark St 16Th 16A112",
   "zip": "60603",
   "lat": 41.879989,
   "lng": -87.630689
  },
  {
   "name": "Fedex Office #5755",
   "address": "20 S Clark St",
   "zip": "60603",
   "lat": 41.881479,
   "lng": -87.631015
  },
  {
   "name": "Fedex Office And Print Svcs, Inc.",
   "address": "608 W Lake St",
   "zip": "60661",
   "lat": 41.885814,
   "lng": -87.6432
  },
  {
   "name": "Fedex Office And Print Svcs, Inc.",
   "address": "1 S Sangamon St",
   "zip": "60607",
   "lat": 41.881657,
   "lng": -87.650718
  },
  {
   "name": "Fedex Office And Print Svcs, Inc.",
   "address": "55 E Monroe St  1",
   "zip": "60603",
   "lat": 41.880688,
   "lng": -87.625644
  },
  {
   "name": "Feelings Gift Shop",
   "address": "17 E Monroe St 1St",
   "zip": "60603",
   "lat": 41.880665,
   "lng": -87.627089,
   "category": "restaurant"
  },
  {
   "name": "Femme Like You",
   "address": "560 W Washington Blvd 1St 100",
   "zip": "60661",
   "lat": 41.883284,
   "lng": -87.642187
  },
  {
   "name": "Fenton Booth",
   "address": "333 S Desplaines St 2 207",
   "zip": "60661",
   "lat": 41.87694,
   "lng": -87.64382
  },
  {
   "name": "Ffc West Loop",
   "address": "10 S Clinton St 1,2,3",
   "zip": "60661",
   "lat": 41.881559,
   "lng": -87.641331,
   "category": "restaurant"
  },
  {
   "name": "Fft At Sabw, Llc",
   "address": "1 S Dearborn St 37Th",
   "zip": "60603",
   "lat": 41.881937,
   "lng": -87.629253,
   "category": "restaurant"
  },
  {
   "name": "Financial Investments Corporation",
   "address": "50 E Washington St 4Th 400",
   "zip": "60602",
   "lat": 41.883331,
   "lng": -87.62604
  },
  {
   "name": "Finer Estate Jewelry, Incorporated",
   "address": "5 S Wabash Ave 7Th 711",
   "zip": "60603",
   "lat": 41.881922,
   "lng": -87.626063
  },
  {
   "name": "Finer Jewelry",
   "address": "5 S Wabash Ave 7 711",
   "zip": "60603",
   "lat": 41.881922,
   "lng": -87.626063
  },
  {
   "name": "Fire&Ash LLC",
   "address": "229 S Jefferson St First Floor",
   "zip": "60661",
   "lat": 41.878396,
   "lng": -87.642402
  },
  {
   "name": "First American Security",
   "address": "910 W Van Buren St 2Nd 2Nw",
   "zip": "60607",
   "lat": 41.876739,
   "lng": -87.650036
  },
  {
   "name": "First Ascent Climbing & Fitness",
   "address": "100 S Morgan St",
   "zip": "60607",
   "lat": 41.880344,
   "lng": -87.652135,
   "category": "fitness"
  },
  {
   "name": "First Ascent Humbolt Park",
   "address": "108 N State St 1St",
   "zip": "60602",
   "lat": 41.883423,
   "lng": -87.628022
  },
  {
   "name": "First Class Valet",
   "address": "233 N Canal St",
   "zip": "60606",
   "lat": 41.886776,
   "lng": -87.639738
  },
  {
   "name": "First Recruiting",
   "address": "100 N La Salle St  1210",
   "zip": "60602",
   "lat": 41.883237,
   "lng": -87.632556
  },
  {
   "name": "First Stop Health, LLC",
   "address": "24 E Washington St  875 Unit37",
   "zip": "60602",
   "lat": 41.883328,
   "lng": -87.627059
  },
  {
   "name": "First Temporary Services",
   "address": "100 N La Salle St 12 1210",
   "zip": "60602",
   "lat": 41.883237,
   "lng": -87.632556
  },
  {
   "name": "Fist Aid Comics",
   "address": "1142 W Taylor St 1",
   "zip": "60607",
   "lat": 41.869539,
   "lng": -87.655923
  },
  {
   "name": "Five Below (780)",
   "address": "42 S State St",
   "zip": "60603",
   "lat": 41.880999,
   "lng": -87.627877
  },
  {
   "name": "Five Guys Burgers & Fries",
   "address": "22 S Clinton St  D",
   "zip": "60661",
   "lat": 41.881163,
   "lng": -87.641317,
   "category": "restaurant"
  },
  {
   "name": "Five Guys Burgers And Fries",
   "address": "180 N Michigan Ave 1St 104",
   "zip": "60601",
   "lat": 41.885254,
   "lng": -87.624635,
   "category": "restaurant"
  },
  {
   "name": "Five Iron Golf Chicago",
   "address": "108 N State St  200 & 290",
   "zip": "60602",
   "lat": 41.883423,
   "lng": -87.628022,
   "category": "restaurant"
  },
  {
   "name": "Flat Top Grill",
   "address": "30 S Wabash Ave",
   "zip": "60603",
   "lat": 41.881335,
   "lng": -87.626335,
   "category": "restaurant"
  },
  {
   "name": "Flax Art & Frame Inc.",
   "address": "220 S Wabash Ave 1St",
   "zip": "60604",
   "lat": 41.878996,
   "lng": -87.626254
  },
  {
   "name": "Fleet Feet Sports",
   "address": "1145 S Delano Ct 1St East",
   "zip": "60605",
   "lat": 41.867769,
   "lng": -87.632346
  },
  {
   "name": "FLIK International Corp @ Chapman and Cutler LLP",
   "address": "320 S Canal St 25-27",
   "zip": "60606",
   "lat": 41.877372,
   "lng": -87.639692,
   "category": "restaurant"
  },
  {
   "name": "Flirt Communications, LLC",
   "address": "141 W Jackson Blvd 35Th 3550",
   "zip": "60604",
   "lat": 41.878026,
   "lng": -87.632062
  },
  {
   "name": "Fls Transportation Services  Limited",
   "address": "20 S Clark St 19 1900",
   "zip": "60602",
   "lat": 41.881479,
   "lng": -87.631015
  },